id,voltage,battery_remaining,current_drawn,ground_speed,air_speed,nav_roll,nav_pitch,nav_bearing,pitch,yaw,roll,alt,lat,lon,payload,distance_frm_home,velocity_x,velocity_y,velocity_z,mode,flight_time
2,12.242,98,24.01,0.19,0.19,NULL,NULL,6,-0.0230505,0.116006,0.0769314,9.76,37.5994472,126.8635019,NULL,NULL,-0.05,0.21,0.12,GUIDED,46.6076
3,12.242,98,25.42,0.57,0.57,NULL,NULL,34,-0.118626,0.77079,0.0847294,9.88,37.5994479,126.8635087,NULL,NULL,0.14,1.02,0.09,GUIDED,47.6506
4,12.193,97,27.75,1.37,1.37,NULL,NULL,72,-0.161391,1.25879,-0.00960255,9.94,37.5994495,126.8635193,NULL,NULL,0.34,1.41,0.05,GUIDED,48.6876
5,12.242,97,25,1.91,1.91,NULL,NULL,71,-0.167338,1.24769,-0.0044446,9.97,37.5994542,126.8635379,NULL,NULL,0.73,1.78,0.02,GUIDED,49.7216
6,12.242,97,25.67,2.18,2.18,NULL,NULL,71,-0.170728,1.25262,0.0148109,9.98,37.5994587,126.8635544,NULL,NULL,0.73,2.01,0.01,GUIDED,50.7626
7,12.242,97,25.75,2.33,2.33,NULL,NULL,72,-0.182804,1.25989,-0.000469682,9.99,37.5994631,126.8635726,NULL,NULL,0.78,2.18,0,GUIDED,51.8026
8,12.242,97,25.75,2.48,2.48,NULL,NULL,71,-0.188929,1.2515,-0.00022712,9.98,37.5994662,126.8635855,NULL,NULL,0.85,2.29,0,GUIDED,52.8406
9,12.242,97,25.75,2.6,2.6,NULL,NULL,71,-0.178343,1.25622,0.00273904,9.98,37.5994729,126.8636127,NULL,NULL,0.88,2.41,0.01,GUIDED,53.8836
10,12.242,96,25.92,2.65,2.65,NULL,NULL,71,-0.179576,1.25612,0.00190217,9.98,37.5994746,126.8636196,NULL,NULL,0.89,2.42,0.01,GUIDED,55.1929
11,12.242,96,26,2.68,2.68,NULL,NULL,71,-0.187178,1.25755,-0.00245453,9.98,37.5994797,126.8636407,NULL,NULL,0.92,2.47,0.01,GUIDED,56.2559
12,12.242,96,26,2.76,2.76,NULL,NULL,72,-0.190472,1.25821,-0.00224289,9.97,37.5994851,126.8636623,NULL,NULL,0.97,2.54,0.01,GUIDED,57.369
13,12.242,96,25.75,2.82,2.82,NULL,NULL,71,-0.190065,1.25587,-0.00217244,9.97,37.5994907,126.8636844,NULL,NULL,1,2.59,0.02,GUIDED,58.435
14,12.242,96,26,2.87,2.87,NULL,NULL,71,-0.190697,1.25388,0.000890849,9.97,37.5994946,126.8636992,NULL,NULL,0.99,2.61,0.02,GUIDED,59.51
15,12.242,96,26,2.9,2.9,NULL,NULL,72,-0.192316,1.25883,-0.00402464,9.97,37.5995003,126.8637217,NULL,NULL,1,2.62,0.02,GUIDED,60.549
16,12.242,96,26,2.94,2.94,NULL,NULL,71,-0.195527,1.25186,-0.000935145,9.97,37.5995081,126.8637519,NULL,NULL,1,2.66,0.02,GUIDED,61.584
17,12.242,95,26.08,2.98,2.98,NULL,NULL,71,-0.194924,1.25478,-0.00228355,9.96,37.5995141,126.8637749,NULL,NULL,1.02,2.69,0.02,GUIDED,62.622
18,12.242,95,26,3,3,NULL,NULL,71,-0.194145,1.2564,-0.00159773,9.97,37.5995224,126.8638058,NULL,NULL,1,2.7,0.02,GUIDED,63.669
19,12.242,95,26.17,3.01,3.01,NULL,NULL,72,-0.193006,1.25678,-0.00314627,9.96,37.5995307,126.8638368,NULL,NULL,0.99,2.71,0.02,GUIDED,64.704
20,12.242,95,26,3.01,3.01,NULL,NULL,72,-0.191349,1.25705,-0.00293518,9.96,37.5995371,126.8638601,NULL,NULL,0.97,2.72,0.03,GUIDED,65.741
21,12.242,95,26.08,3,3,NULL,NULL,72,-0.19553,1.25883,-0.00363961,9.97,37.5995435,126.8638832,NULL,NULL,0.96,2.72,0.02,GUIDED,66.781
22,12.242,94,26,3.01,3.01,NULL,NULL,71,-0.195883,1.25234,0.000188392,9.97,37.59955,126.8639064,NULL,NULL,0.95,2.73,0.02,GUIDED,67.841
23,12.242,94,26,3.03,3.03,NULL,NULL,71,-0.19207,1.25566,0.000923495,9.97,37.5995586,126.8639375,NULL,NULL,0.9,2.75,0.02,GUIDED,68.872
24,12.242,94,25.92,3.01,3.01,NULL,NULL,71,-0.193659,1.25155,0.00172705,9.97,37.599565,126.8639607,NULL,NULL,0.9,2.73,0.02,GUIDED,69.913
25,12.242,94,26,3.02,3.02,NULL,NULL,71,-0.197119,1.25584,0.00414095,9.97,37.5995736,126.8639916,NULL,NULL,0.89,2.74,0.02,GUIDED,70.958
26,12.242,94,26.17,3.04,3.04,NULL,NULL,72,-0.193489,1.25775,0.00840654,9.97,37.5995801,126.864015,NULL,NULL,0.86,2.76,0.02,GUIDED,71.996
27,12.242,94,26.08,3.02,3.02,NULL,NULL,71,-0.191023,1.25027,0.00563504,9.97,37.5995884,126.8640463,NULL,NULL,0.83,2.77,0.01,GUIDED,73.1451
28,12.242,93,26,3.01,3.01,NULL,NULL,71,-0.189874,1.25218,0.0058778,9.97,37.5995945,126.8640697,NULL,NULL,0.82,2.75,0.02,GUIDED,74.1941
29,12.242,93,26.17,2.99,2.99,NULL,NULL,71,-0.19034,1.25601,0.00688204,9.98,37.5995986,126.8640853,NULL,NULL,0.8,2.75,0.01,GUIDED,75.2311
30,12.242,93,26.08,2.99,2.99,NULL,NULL,71,-0.19328,1.25606,0.000946135,9.98,37.5996046,126.8641085,NULL,NULL,0.79,2.76,0.01,GUIDED,76.2691
31,12.242,93,26.17,3,3,NULL,NULL,71,-0.19177,1.25108,0.00332461,9.98,37.5996106,126.8641319,NULL,NULL,0.79,2.76,0.01,GUIDED,77.291
32,12.242,93,26.08,2.99,2.99,NULL,NULL,71,-0.190874,1.2545,0.0047204,9.98,37.5996188,126.8641628,NULL,NULL,0.8,2.76,0.01,GUIDED,78.303
33,12.242,93,26.08,2.98,2.98,NULL,NULL,71,-0.190835,1.25222,0.00738459,9.99,37.599625,126.864186,NULL,NULL,0.78,2.75,0,GUIDED,79.317
34,12.242,92,26,2.98,2.98,NULL,NULL,71,-0.192792,1.25267,0.00383423,9.99,37.5996331,126.8642168,NULL,NULL,0.77,2.76,0,GUIDED,80.3289
35,12.242,92,26.08,2.99,2.99,NULL,NULL,71,-0.190673,1.25345,0.00861607,9.99,37.5996412,126.8642478,NULL,NULL,0.77,2.78,0,GUIDED,81.3399
36,12.242,92,26,2.98,2.98,NULL,NULL,71,-0.191578,1.2563,0.00462009,10,37.5996472,126.864271,NULL,NULL,0.77,2.77,0,GUIDED,82.3529
37,12.242,92,26,2.97,2.97,NULL,NULL,72,-0.190195,1.25688,0.00717089,10,37.5996533,126.8642942,NULL,NULL,0.78,2.77,0,GUIDED,83.3669
38,12.242,92,26.17,2.96,2.96,NULL,NULL,72,-0.190118,1.25954,0.00670631,10,37.5996572,126.8643096,NULL,NULL,0.78,2.77,0,GUIDED,84.3838
39,12.242,92,25.92,2.96,2.96,NULL,NULL,72,-0.192612,1.25698,0.00452106,10,37.5996631,126.8643327,NULL,NULL,0.77,2.75,0,GUIDED,85.3998
40,12.242,91,25.84,2.97,2.97,NULL,NULL,71,-0.197273,1.24925,0.00780543,10,37.599671,126.8643634,NULL,NULL,0.77,2.77,0,GUIDED,86.4108
41,12.242,91,26.17,2.99,2.99,NULL,NULL,71,-0.196311,1.25607,0.00504826,10,37.5996749,126.8643789,NULL,NULL,0.77,2.79,0,GUIDED,87.4268
42,12.242,91,25.92,3.01,3.01,NULL,NULL,72,-0.194815,1.25718,0.00299501,10,37.5996788,126.8643945,NULL,NULL,0.77,2.79,0,GUIDED,88.6109
43,12.242,91,26.08,3.01,3.01,NULL,NULL,71,-0.194137,1.25542,0.00293469,10,37.5996848,126.8644179,NULL,NULL,0.79,2.79,0,GUIDED,90.4006
44,12.242,91,26,3.01,3.01,NULL,NULL,72,-0.193151,1.25685,0.000134931,10,37.5996908,126.8644413,NULL,NULL,0.8,2.78,0,GUIDED,91.4206
45,12.242,91,26,3,3,NULL,NULL,71,-0.18995,1.25264,0.00387647,10,37.5996949,126.8644569,NULL,NULL,0.8,2.78,0,GUIDED,92.4335
46,12.242,91,26,2.99,2.99,NULL,NULL,72,-0.19217,1.25716,0.00486747,10,37.599699,126.8644723,NULL,NULL,0.79,2.76,0,GUIDED,93.5987
47,12.242,90,26,2.99,2.99,NULL,NULL,71,-0.196392,1.25352,0.00561656,10,37.599705,126.8644955,NULL,NULL,0.79,2.77,0,GUIDED,94.8268
48,12.242,90,26,3,3,NULL,NULL,71,-0.19311,1.25228,0.00542561,10,37.599709,126.864511,NULL,NULL,0.79,2.78,0,GUIDED,95.8388
49,12.242,90,25.92,3,3,NULL,NULL,71,-0.193908,1.25104,0.00305492,10,37.599713,126.8645265,NULL,NULL,0.78,2.78,0,GUIDED,96.8538
50,12.242,90,26.17,3,3,NULL,NULL,71,-0.195484,1.25591,0.00265768,10,37.5997191,126.8645499,NULL,NULL,0.8,2.78,0,GUIDED,97.8667
51,12.242,90,25.92,3.01,3.01,NULL,NULL,72,-0.193643,1.2591,0.00305478,10,37.5997252,126.8645733,NULL,NULL,0.8,2.79,0,GUIDED,98.8807
52,12.242,90,25.92,3,3,NULL,NULL,71,-0.191541,1.2539,0.00579444,10,37.5997292,126.8645889,NULL,NULL,0.79,2.79,0,GUIDED,99.9477
53,12.242,90,26,2.99,2.99,NULL,NULL,72,-0.191435,1.25794,0.000213457,10,37.5997352,126.8646122,NULL,NULL,0.79,2.77,0,GUIDED,100.965
54,12.242,90,26,2.98,2.98,NULL,NULL,71,-0.193254,1.25526,0.00247189,10,37.5997392,126.8646276,NULL,NULL,0.8,2.76,0,GUIDED,101.982
55,12.242,90,26,2.99,2.99,NULL,NULL,71,-0.194422,1.25648,0.00341449,10,37.5997432,126.864643,NULL,NULL,0.79,2.76,0,GUIDED,103.014
56,12.242,89,26,3.01,3.01,NULL,NULL,71,-0.196766,1.25441,0.00454646,10,37.5997492,126.8646662,NULL,NULL,0.79,2.77,0,GUIDED,104.03
57,12.242,89,25.92,3.01,3.01,NULL,NULL,71,-0.196038,1.25171,0.00477647,10,37.5997533,126.8646818,NULL,NULL,0.79,2.79,0,GUIDED,105.143
58,12.242,89,26,3.02,3.02,NULL,NULL,71,-0.193928,1.25423,0.00355143,10.01,37.5997573,126.8646975,NULL,NULL,0.79,2.79,0,GUIDED,106.159
59,12.242,89,25.92,3.02,3.02,NULL,NULL,72,-0.192131,1.25667,0.00231143,10.01,37.5997593,126.8647053,NULL,NULL,0.78,2.78,0,GUIDED,107.175
60,12.242,89,26.17,3.01,3.01,NULL,NULL,72,-0.193659,1.26069,-0.000437775,10,37.5997633,126.8647209,NULL,NULL,0.79,2.77,-0.01,GUIDED,108.258
61,12.242,89,25.92,3.01,3.01,NULL,NULL,71,-0.192222,1.25261,-0.000104109,10.01,37.5997674,126.8647364,NULL,NULL,0.8,2.76,-0.01,GUIDED,109.273
62,12.242,89,25.84,3,3,NULL,NULL,71,-0.195245,1.25104,0.0035167,10.01,37.5997715,126.8647519,NULL,NULL,0.8,2.76,0,GUIDED,110.345
63,12.242,89,25.84,3.01,3.01,NULL,NULL,71,-0.194617,1.25276,0.00492283,10.01,37.5997776,126.8647751,NULL,NULL,0.79,2.77,0,GUIDED,111.361
64,12.242,88,25.92,3.01,3.01,NULL,NULL,72,-0.193644,1.25664,0.00352319,10,37.5997838,126.8647985,NULL,NULL,0.79,2.78,0,GUIDED,112.381
65,12.242,88,25.92,3.01,3.01,NULL,NULL,71,-0.191979,1.25338,0.00337596,10,37.5997878,126.8648141,NULL,NULL,0.78,2.78,0,GUIDED,113.396
66,12.242,88,25.92,2.99,2.99,NULL,NULL,71,-0.190852,1.25264,0.00276138,10,37.5997939,126.8648374,NULL,NULL,0.78,2.77,0,GUIDED,114.446
67,12.242,88,26,2.99,2.99,NULL,NULL,71,-0.191459,1.25276,0.00414022,10,37.5997959,126.8648452,NULL,NULL,0.78,2.77,0,GUIDED,115.52
68,12.242,88,26,2.98,2.98,NULL,NULL,71,-0.192899,1.25567,0.00573156,10,37.599802,126.8648684,NULL,NULL,0.77,2.77,0,GUIDED,116.535
69,12.242,88,25.92,2.99,2.99,NULL,NULL,71,-0.194509,1.25068,0.00515298,10,37.599806,126.864884,NULL,NULL,0.77,2.78,0,GUIDED,117.569
70,12.242,88,25.92,2.99,2.99,NULL,NULL,71,-0.191455,1.25107,0.0043702,10,37.59981,126.8648995,NULL,NULL,0.77,2.77,0,GUIDED,118.588
71,12.242,88,26,2.99,2.99,NULL,NULL,72,-0.193809,1.25967,-0.00218091,10,37.599816,126.8649227,NULL,NULL,0.79,2.77,0,GUIDED,119.602
72,12.242,87,25.84,3,3,NULL,NULL,71,-0.193343,1.25104,0.00568811,10,37.5998221,126.8649459,NULL,NULL,0.8,2.78,0,GUIDED,120.615
73,12.242,87,25.75,3,3,NULL,NULL,71,-0.192435,1.24689,0.0105736,10,37.5998262,126.8649614,NULL,NULL,0.78,2.77,0,GUIDED,121.662
74,12.242,87,26,2.99,2.99,NULL,NULL,71,-0.191944,1.25229,0.00763887,10,37.5998282,126.8649691,NULL,NULL,0.76,2.77,0,GUIDED,122.734
75,12.242,87,26,2.99,2.99,NULL,NULL,72,-0.192253,1.25939,0.0018851,10,37.5998321,126.8649846,NULL,NULL,0.76,2.76,0,GUIDED,123.758
76,12.242,87,26.08,2.98,2.98,NULL,NULL,72,-0.193685,1.25885,0.000497348,10,37.5998361,126.865,NULL,NULL,0.77,2.76,0,GUIDED,124.912
77,12.242,87,25.92,2.99,2.99,NULL,NULL,71,-0.194346,1.25578,0.00381133,10,37.5998401,126.8650155,NULL,NULL,0.78,2.77,0,GUIDED,125.928
78,12.242,87,25.84,2.99,2.99,NULL,NULL,71,-0.195343,1.24818,0.00544801,9.99,37.5998442,126.865031,NULL,NULL,0.78,2.78,0,GUIDED,126.942
79,12.242,87,26,3,3,NULL,NULL,71,-0.193733,1.25477,0.00458044,9.99,37.5998482,126.8650466,NULL,NULL,0.77,2.78,0,GUIDED,128.018
80,12.242,87,25.92,3,3,NULL,NULL,71,-0.192877,1.25537,0.00240933,9.99,37.5998522,126.8650621,NULL,NULL,0.76,2.78,0,GUIDED,129.055
81,12.242,87,26,3,3,NULL,NULL,71,-0.192843,1.25392,-0.000572631,9.99,37.5998562,126.8650777,NULL,NULL,0.77,2.78,0,GUIDED,130.089
82,12.242,86,25.92,3,3,NULL,NULL,71,-0.192014,1.25423,0.00144397,9.99,37.5998602,126.8650932,NULL,NULL,0.79,2.76,0,GUIDED,131.116
83,12.242,86,26.17,3,3,NULL,NULL,72,-0.194792,1.26007,0.00377087,9.99,37.5998643,126.8651086,NULL,NULL,0.77,2.77,0,GUIDED,132.305
84,12.242,86,26,3,3,NULL,NULL,72,-0.195958,1.25757,0.00226574,9.99,37.5998704,126.8651319,NULL,NULL,0.76,2.79,0,GUIDED,133.499
85,12.242,86,26,3.01,3.01,NULL,NULL,71,-0.191774,1.25511,0.00196536,9.99,37.5998765,126.8651553,NULL,NULL,0.76,2.77,0,GUIDED,134.539
86,12.242,86,25.75,3,3,NULL,NULL,71,-0.193584,1.25074,0.00197538,9.99,37.5998826,126.8651785,NULL,NULL,0.77,2.77,0,GUIDED,135.554
87,12.242,86,26,3.01,3.01,NULL,NULL,71,-0.193588,1.25402,0.00565283,9.99,37.5998909,126.8652096,NULL,NULL,0.76,2.78,0,GUIDED,136.569
88,12.242,86,25.92,3.01,3.01,NULL,NULL,71,-0.192892,1.2502,0.00614678,9.98,37.599895,126.8652252,NULL,NULL,0.75,2.78,0,GUIDED,137.611
89,12.242,85,26,3,3,NULL,NULL,71,-0.194122,1.25551,0.00457665,9.99,37.5999012,126.8652484,NULL,NULL,0.74,2.76,0.01,GUIDED,138.645
90,12.242,85,26,3.01,3.01,NULL,NULL,72,-0.194931,1.25709,0.0033071,9.99,37.5999052,126.8652638,NULL,NULL,0.75,2.76,0,GUIDED,139.659
91,12.242,85,26.17,3.02,3.02,NULL,NULL,71,-0.1956,1.25335,0.00676595,9.98,37.5999113,126.8652872,NULL,NULL,0.75,2.78,0,GUIDED,140.692
92,12.242,85,25.92,3.03,3.03,NULL,NULL,71,-0.189774,1.2513,0.00798146,9.99,37.5999174,126.8653107,NULL,NULL,0.74,2.78,0,GUIDED,141.771
93,12.242,85,26.25,3.01,3.01,NULL,NULL,71,-0.191258,1.25478,0.00665776,9.99,37.5999214,126.8653263,NULL,NULL,0.73,2.77,0,GUIDED,142.802
94,12.242,85,26,3,3,NULL,NULL,72,-0.192224,1.25738,0.00170315,9.99,37.5999294,126.8653574,NULL,NULL,0.75,2.77,0,GUIDED,143.843
95,12.242,85,26,3,3,NULL,NULL,71,-0.190657,1.25168,0.0098897,9.99,37.5999354,126.8653808,NULL,NULL,0.75,2.77,0,GUIDED,144.881
96,12.242,84,25.92,2.99,2.99,NULL,NULL,71,-0.192663,1.25056,0.00600842,10,37.5999413,126.8654042,NULL,NULL,0.72,2.77,0,GUIDED,145.902
97,12.242,84,26.17,2.99,2.99,NULL,NULL,72,-0.192224,1.25883,0.00220126,10,37.5999472,126.8654275,NULL,NULL,0.74,2.77,0,GUIDED,146.931
98,12.242,84,26,2.98,2.98,NULL,NULL,72,-0.189894,1.25735,0.000885859,10,37.5999533,126.8654508,NULL,NULL,0.76,2.76,0,GUIDED,147.947
99,12.242,84,26,2.97,2.97,NULL,NULL,71,-0.191433,1.25288,0.00664397,10,37.5999593,126.8654739,NULL,NULL,0.75,2.76,0,GUIDED,148.965
100,12.242,84,26,2.97,2.97,NULL,NULL,71,-0.192474,1.25296,0.00500332,10,37.5999653,126.8654971,NULL,NULL,0.74,2.76,0,GUIDED,149.986
101,12.242,84,26.08,2.98,2.98,NULL,NULL,71,-0.192922,1.2538,0.002851,10,37.5999714,126.8655202,NULL,NULL,0.76,2.76,0,GUIDED,151
102,12.242,83,25.92,2.98,2.98,NULL,NULL,71,-0.190555,1.25016,0.00901572,10,37.5999775,126.8655434,NULL,NULL,0.77,2.77,0,GUIDED,152.018
103,12.242,83,25.92,2.97,2.97,NULL,NULL,72,-0.189652,1.25694,0.00887999,10,37.5999835,126.8655665,NULL,NULL,0.74,2.76,-0.01,GUIDED,153.057
104,12.242,83,26,2.96,2.96,NULL,NULL,71,-0.19356,1.25572,0.0050769,10,37.5999874,126.8655819,NULL,NULL,0.74,2.76,0,GUIDED,154.261
105,12.242,83,25.92,2.98,2.98,NULL,NULL,71,-0.195999,1.25486,0.00508265,10,37.5999933,126.8656051,NULL,NULL,0.76,2.77,0,GUIDED,155.294
106,12.242,83,25.92,3,3,NULL,NULL,71,-0.194232,1.25411,0.00739166,10,37.5999993,126.8656283,NULL,NULL,0.77,2.77,0,GUIDED,156.31
107,12.242,83,26,3.01,3.01,NULL,NULL,71,-0.192784,1.25652,0.00442228,10,37.6000053,126.8656516,NULL,NULL,0.77,2.78,0,GUIDED,157.324
108,12.242,82,26,3,3,NULL,NULL,71,-0.194177,1.25345,0.00521289,10,37.6000132,126.8656827,NULL,NULL,0.76,2.77,0,GUIDED,158.341
109,12.242,82,26.08,3.01,3.01,NULL,NULL,72,-0.195618,1.25828,0.000081007,10,37.6000192,126.8657061,NULL,NULL,0.77,2.78,0,GUIDED,159.356
110,12.242,82,26,3.02,3.02,NULL,NULL,71,-0.191429,1.25251,0.00784227,10,37.6000273,126.8657373,NULL,NULL,0.77,2.78,0,GUIDED,160.37
111,12.242,82,26,3,3,NULL,NULL,72,-0.193239,1.25752,0.00501182,10,37.6000374,126.8657762,NULL,NULL,0.77,2.77,0,GUIDED,161.383
112,12.242,82,26,3,3,NULL,NULL,72,-0.192181,1.25735,0.00525172,10,37.6000455,126.8658072,NULL,NULL,0.76,2.77,0,GUIDED,162.408
113,12.242,81,26,3,3,NULL,NULL,71,-0.193731,1.25107,0.00306005,10,37.6000516,126.8658305,NULL,NULL,0.76,2.77,0,GUIDED,163.428
114,12.242,81,26.08,3,3,NULL,NULL,72,-0.193066,1.25682,0.00533202,10,37.6000598,126.8658616,NULL,NULL,0.77,2.76,0,GUIDED,164.441
115,12.242,81,26,2.99,2.99,NULL,NULL,71,-0.191763,1.25588,0.00826806,10,37.6000679,126.8658925,NULL,NULL,0.75,2.74,0,GUIDED,165.454
116,12.242,81,25.84,3,3,NULL,NULL,71,-0.195828,1.24764,0.00847422,9.99,37.600078,126.8659313,NULL,NULL,0.77,2.78,0,GUIDED,166.466
117,12.242,81,25.84,3.01,3.01,NULL,NULL,71,-0.189985,1.24959,0.00845451,9.99,37.6000861,126.8659626,NULL,NULL,0.74,2.78,0,GUIDED,167.48
118,12.242,80,26.08,2.98,2.98,NULL,NULL,71,-0.191597,1.25895,0.00263279,9.99,37.6000961,126.8660013,NULL,NULL,0.76,2.76,0,GUIDED,168.494
119,12.242,80,26,2.98,2.98,NULL,NULL,72,-0.194969,1.25554,0.00860704,9.99,37.6001023,126.8660245,NULL,NULL,0.77,2.77,0,GUIDED,169.535
120,12.242,80,26.08,2.99,2.99,NULL,NULL,71,-0.191047,1.25351,0.01069,9.99,37.6001083,126.8660478,NULL,NULL,0.76,2.78,0,GUIDED,170.605
121,12.242,80,25.92,2.99,2.99,NULL,NULL,71,-0.189367,1.25604,0.00822064,9.99,37.6001123,126.8660633,NULL,NULL,0.75,2.77,0,GUIDED,171.62
122,12.242,80,26.08,2.97,2.97,NULL,NULL,71,-0.193105,1.25644,0.00538106,9.99,37.6001202,126.8660941,NULL,NULL,0.74,2.76,0,GUIDED,172.644
123,12.242,80,26,2.98,2.98,NULL,NULL,71,-0.195149,1.2542,0.00643415,9.99,37.6001262,126.8661173,NULL,NULL,0.77,2.78,0,GUIDED,173.659
124,12.242,79,26,2.99,2.99,NULL,NULL,71,-0.193644,1.25266,0.0113658,9.99,37.6001343,126.8661483,NULL,NULL,0.75,2.78,0,GUIDED,174.672
125,12.242,79,26.08,2.99,2.99,NULL,NULL,72,-0.190437,1.2577,0.00286755,9.99,37.6001422,126.8661794,NULL,NULL,0.76,2.78,0,GUIDED,175.686
126,12.242,79,26,2.98,2.98,NULL,NULL,71,-0.193234,1.25436,0.0109294,9.99,37.6001503,126.8662103,NULL,NULL,0.77,2.76,0,GUIDED,176.7
127,12.242,79,26,2.99,2.99,NULL,NULL,71,-0.195928,1.25527,0.00758124,9.99,37.6001583,126.8662412,NULL,NULL,0.76,2.77,0,GUIDED,177.72
128,12.242,78,26.08,3.02,3.02,NULL,NULL,71,-0.19368,1.25892,0.00983384,9.99,37.6001663,126.8662723,NULL,NULL,0.76,2.77,0,GUIDED,178.734
129,12.242,78,26.17,3.02,3.02,NULL,NULL,72,-0.194152,1.25786,0.00720002,9.99,37.6001743,126.8663034,NULL,NULL,0.76,2.77,0,GUIDED,179.744
130,12.242,78,26.08,3.02,3.02,NULL,NULL,71,-0.193198,1.25196,0.00618833,9.99,37.6001823,126.8663348,NULL,NULL,0.79,2.79,0,GUIDED,180.752
131,12.242,78,25.84,3.01,3.01,NULL,NULL,71,-0.189764,1.24983,0.0114503,9.99,37.6001905,126.8663661,NULL,NULL,0.78,2.76,0,GUIDED,181.763
132,12.242,78,26,2.99,2.99,NULL,NULL,71,-0.194019,1.25521,0.0103614,9.99,37.6001985,126.8663971,NULL,NULL,0.75,2.75,0,GUIDED,182.772
133,12.242,77,25.92,3,3,NULL,NULL,71,-0.195575,1.25065,0.00786785,9.99,37.6002064,126.8664281,NULL,NULL,0.77,2.74,0,GUIDED,183.782
134,12.242,77,26,3.02,3.02,NULL,NULL,71,-0.195381,1.25326,0.00960356,9.99,37.6002125,126.8664514,NULL,NULL,0.78,2.75,0,GUIDED,184.804
135,12.242,77,25.92,3.02,3.02,NULL,NULL,71,-0.19104,1.25269,0.00904704,9.99,37.6002185,126.8664749,NULL,NULL,0.77,2.75,0,GUIDED,185.82
136,12.242,77,26,3.01,3.01,NULL,NULL,72,-0.194607,1.25672,0.00938849,9.99,37.6002266,126.8665059,NULL,NULL,0.77,2.73,0,GUIDED,186.832
137,12.242,77,25.92,3.02,3.02,NULL,NULL,71,-0.195543,1.25349,0.00877121,9.99,37.6002326,126.8665293,NULL,NULL,0.78,2.75,0,GUIDED,187.842
138,12.242,77,25.92,3.02,3.02,NULL,NULL,71,-0.191585,1.2538,0.00776597,9.99,37.6002406,126.8665607,NULL,NULL,0.76,2.75,0,GUIDED,188.859
139,12.242,76,25.92,3.01,3.01,NULL,NULL,71,-0.194665,1.25333,0.00600643,9.99,37.6002467,126.8665841,NULL,NULL,0.79,2.75,0,GUIDED,189.872
140,12.242,76,25.92,3,3,NULL,NULL,71,-0.188712,1.25582,0.0100717,9.99,37.600255,126.8666154,NULL,NULL,0.78,2.75,0,GUIDED,190.885
141,12.242,76,26,2.97,2.97,NULL,NULL,71,-0.191001,1.25353,0.0110411,9.99,37.6002631,126.8666463,NULL,NULL,0.77,2.73,0,GUIDED,191.897
142,12.242,76,26.08,2.98,2.98,NULL,NULL,72,-0.191974,1.25923,0.00918812,9.99,37.6002712,126.8666772,NULL,NULL,0.78,2.73,0,GUIDED,192.909
143,12.242,76,26,2.99,2.99,NULL,NULL,71,-0.191998,1.25539,0.0117233,9.99,37.6002792,126.8667081,NULL,NULL,0.77,2.74,0,GUIDED,193.921
144,12.242,75,25.92,2.99,2.99,NULL,NULL,71,-0.189836,1.25061,0.0117936,9.99,37.6002851,126.8667314,NULL,NULL,0.75,2.74,0,GUIDED,194.932
145,12.242,75,26.08,2.99,2.99,NULL,NULL,72,-0.193055,1.25802,0.00821545,9.99,37.600293,126.8667624,NULL,NULL,0.77,2.74,0,GUIDED,195.943
146,12.242,75,26,3,3,NULL,NULL,72,-0.192259,1.25788,0.00868047,9.99,37.600301,126.8667934,NULL,NULL,0.78,2.73,0,GUIDED,196.956
147,12.242,75,25.92,3,3,NULL,NULL,71,-0.190732,1.25074,0.0129172,9.99,37.6003091,126.8668244,NULL,NULL,0.77,2.74,0,GUIDED,197.967
148,12.242,75,26.17,2.99,2.99,NULL,NULL,72,-0.190739,1.25769,0.00804431,9.99,37.6003151,126.8668477,NULL,NULL,0.77,2.74,0,GUIDED,198.979
149,12.242,74,26,2.99,2.99,NULL,NULL,72,-0.19175,1.25754,0.00596164,9.99,37.6003232,126.8668788,NULL,NULL,0.79,2.74,0,GUIDED,199.995
150,12.242,74,26,2.99,2.99,NULL,NULL,71,-0.189519,1.2561,0.0109406,9.99,37.6003293,126.8669021,NULL,NULL,0.78,2.74,0,GUIDED,201.004
151,12.242,74,26,2.97,2.97,NULL,NULL,72,-0.191008,1.25775,0.00965825,9.99,37.6003374,126.8669329,NULL,NULL,0.77,2.72,0,GUIDED,202.016
152,12.242,74,26,2.99,2.99,NULL,NULL,71,-0.195655,1.25146,0.014806,9.99,37.6003435,126.866956,NULL,NULL,0.77,2.73,0,GUIDED,203.036
153,12.242,74,26,3.01,3.01,NULL,NULL,71,-0.192207,1.25335,0.0128768,9.99,37.6003495,126.8669793,NULL,NULL,0.76,2.75,0,GUIDED,204.049
154,12.242,74,26,3.01,3.01,NULL,NULL,71,-0.191671,1.25503,0.00771005,9.99,37.6003555,126.8670027,NULL,NULL,0.77,2.74,0,GUIDED,205.061
155,12.242,73,26,3,3,NULL,NULL,71,-0.191308,1.2549,0.0125218,9.99,37.6003615,126.867026,NULL,NULL,0.77,2.73,0,GUIDED,206.07
156,12.242,73,26,3.01,3.01,NULL,NULL,71,-0.19454,1.25578,0.0100597,9.99,37.6003696,126.867057,NULL,NULL,0.78,2.73,0,GUIDED,207.079
157,12.242,73,25.92,3.03,3.03,NULL,NULL,71,-0.193638,1.24849,0.0134504,9.99,37.6003777,126.8670882,NULL,NULL,0.76,2.75,0,GUIDED,208.089
158,12.242,73,26.17,3.03,3.03,NULL,NULL,71,-0.191638,1.25502,0.00852802,10,37.6003856,126.8671197,NULL,NULL,0.75,2.75,0,GUIDED,209.099
159,12.242,73,26,3.01,3.01,NULL,NULL,71,-0.189249,1.25401,0.00937444,10,37.6003917,126.867143,NULL,NULL,0.77,2.71,0,GUIDED,210.112
160,12.242,72,25.92,3,3,NULL,NULL,71,-0.193432,1.25618,0.00976374,10,37.6003998,126.867174,NULL,NULL,0.76,2.72,0,GUIDED,211.126
161,12.242,72,26,3.01,3.01,NULL,NULL,71,-0.192194,1.24801,0.0112508,10,37.600408,126.8672052,NULL,NULL,0.77,2.73,0,GUIDED,212.141
162,12.242,72,26.08,3.01,3.01,NULL,NULL,71,-0.189918,1.25616,0.0121645,10,37.6004142,126.8672286,NULL,NULL,0.76,2.73,0,GUIDED,213.181
163,12.242,72,26,3,3,NULL,NULL,71,-0.190446,1.25351,0.00984798,10.01,37.6004203,126.8672519,NULL,NULL,0.76,2.71,0,GUIDED,214.192
164,12.242,72,26.08,2.99,2.99,NULL,NULL,71,-0.192977,1.25231,0.0112485,10.01,37.6004263,126.8672751,NULL,NULL,0.76,2.72,-0.01,GUIDED,215.202
165,12.242,71,25.92,2.99,2.99,NULL,NULL,71,-0.190182,1.25555,0.0111571,10.01,37.6004344,126.8673061,NULL,NULL,0.77,2.71,-0.01,GUIDED,216.211
166,12.242,71,26.08,2.99,2.99,NULL,NULL,71,-0.190915,1.25119,0.0159505,10.01,37.6004404,126.8673293,NULL,NULL,0.76,2.72,-0.01,GUIDED,217.222
167,12.242,71,26.08,2.99,2.99,NULL,NULL,72,-0.191207,1.25682,0.00918317,10.01,37.6004463,126.8673527,NULL,NULL,0.75,2.72,-0.01,GUIDED,218.236
168,12.242,71,26,2.99,2.99,NULL,NULL,71,-0.192034,1.2511,0.00990793,10.01,37.6004522,126.867376,NULL,NULL,0.78,2.72,-0.01,GUIDED,219.368
169,12.242,71,26.17,2.99,2.99,NULL,NULL,72,-0.189554,1.25678,0.0120729,10.01,37.6004563,126.8673916,NULL,NULL,0.78,2.73,-0.02,GUIDED,220.4
170,12.242,71,26.08,2.98,2.98,NULL,NULL,72,-0.190472,1.25734,0.0107929,10.01,37.6004602,126.8674071,NULL,NULL,0.77,2.73,-0.01,GUIDED,221.411
171,12.242,71,25.92,2.98,2.98,NULL,NULL,71,-0.188593,1.25326,0.0111211,10.02,37.6004641,126.8674226,NULL,NULL,0.76,2.73,-0.01,GUIDED,222.645
172,12.242,71,25.92,2.97,2.97,NULL,NULL,71,-0.189268,1.25144,0.0106556,10.02,37.600468,126.8674381,NULL,NULL,0.76,2.72,-0.02,GUIDED,223.725
173,12.242,70,25.92,2.97,2.97,NULL,NULL,71,-0.192839,1.25607,0.00800324,10.02,37.6004738,126.8674612,NULL,NULL,0.77,2.72,-0.01,GUIDED,224.751
174,12.242,70,25.92,2.97,2.97,NULL,NULL,72,-0.191654,1.25717,0.00569213,10.02,37.6004798,126.8674844,NULL,NULL,0.8,2.71,-0.02,GUIDED,225.855
175,12.242,70,25.92,2.97,2.97,NULL,NULL,71,-0.19134,1.25302,0.0090162,10.02,37.6004838,126.8674997,NULL,NULL,0.8,2.71,-0.02,GUIDED,226.916
176,12.242,70,26,2.97,2.97,NULL,NULL,72,-0.192813,1.25945,0.00807263,10.02,37.6004898,126.8675228,NULL,NULL,0.79,2.71,-0.02,GUIDED,227.93
177,12.242,70,25.75,2.97,2.97,NULL,NULL,71,-0.194448,1.25278,0.00838188,10.02,37.6004958,126.867546,NULL,NULL,0.8,2.73,-0.01,GUIDED,228.942
178,12.242,70,25.92,2.97,2.97,NULL,NULL,71,-0.19142,1.25574,0.00766479,10.01,37.6005039,126.8675769,NULL,NULL,0.81,2.73,-0.01,GUIDED,230.093
179,12.242,69,26,2.97,2.97,NULL,NULL,72,-0.192116,1.26002,0.0103079,10.01,37.6005099,126.8676001,NULL,NULL,0.81,2.73,-0.01,GUIDED,231.11
180,12.242,69,25.84,2.97,2.97,NULL,NULL,71,-0.193821,1.25453,0.0107744,10,37.6005159,126.8676232,NULL,NULL,0.79,2.74,0,GUIDED,232.13
181,12.242,69,25.84,2.98,2.98,NULL,NULL,71,-0.193897,1.25181,0.00704787,10,37.6005217,126.8676466,NULL,NULL,0.8,2.76,0,GUIDED,233.144
182,12.242,69,25.84,2.98,2.98,NULL,NULL,71,-0.188793,1.25146,0.00598116,10,37.6005257,126.8676621,NULL,NULL,0.82,2.76,0,GUIDED,234.162
183,12.242,69,25.84,2.96,2.96,NULL,NULL,71,-0.191828,1.25564,0.00527975,10,37.6005316,126.8676852,NULL,NULL,0.83,2.72,0,GUIDED,235.225
184,12.242,69,25.84,2.96,2.96,NULL,NULL,71,-0.195716,1.25562,0.010003,9.99,37.6005377,126.8677082,NULL,NULL,0.84,2.73,0,GUIDED,236.247
185,12.242,69,25.92,2.98,2.98,NULL,NULL,71,-0.195392,1.25312,0.0116105,9.99,37.6005436,126.8677313,NULL,NULL,0.84,2.76,0,GUIDED,237.258
186,12.242,68,25.92,2.99,2.99,NULL,NULL,71,-0.192111,1.25305,0.00928277,9.98,37.6005515,126.8677624,NULL,NULL,0.84,2.75,0.01,GUIDED,238.271
187,12.242,68,25.84,2.97,2.97,NULL,NULL,71,-0.192878,1.24922,0.00961405,9.98,37.6005594,126.8677934,NULL,NULL,0.85,2.75,0.01,GUIDED,239.282
188,12.242,68,25.92,2.98,2.98,NULL,NULL,72,-0.195911,1.25796,0.00618528,9.97,37.6005672,126.8678243,NULL,NULL,0.86,2.75,0.02,GUIDED,240.294
189,12.242,68,25.84,2.99,2.99,NULL,NULL,71,-0.19442,1.24938,0.00798669,9.97,37.6005751,126.8678553,NULL,NULL,0.87,2.74,0.02,GUIDED,241.305
190,12.242,68,25.75,2.99,2.99,NULL,NULL,71,-0.196343,1.25096,0.00655361,9.97,37.6005829,126.8678862,NULL,NULL,0.87,2.73,0.02,GUIDED,242.313
191,12.242,67,26,3,3,NULL,NULL,71,-0.196778,1.2564,0.00134181,9.96,37.6005908,126.8679174,NULL,NULL,0.9,2.77,0.02,GUIDED,243.327
192,12.242,67,26,3.02,3.02,NULL,NULL,71,-0.193546,1.25334,0.00568037,9.96,37.6005969,126.8679409,NULL,NULL,0.91,2.76,0.02,GUIDED,244.34
193,12.242,67,26,3,3,NULL,NULL,72,-0.19236,1.26015,0.000967668,9.96,37.600605,126.867972,NULL,NULL,0.9,2.75,0.03,GUIDED,245.355
194,12.242,67,25.84,2.98,2.98,NULL,NULL,71,-0.19201,1.24834,0.00981701,9.96,37.600615,126.8680109,NULL,NULL,0.89,2.77,0.03,GUIDED,246.368
195,12.242,67,26,2.96,2.96,NULL,NULL,71,-0.190189,1.25239,0.00272703,9.96,37.6006209,126.8680342,NULL,NULL,0.88,2.75,0.02,GUIDED,247.382
196,12.242,66,26.17,2.95,2.95,NULL,NULL,72,-0.195768,1.25858,0.00301036,9.96,37.6006289,126.868065,NULL,NULL,0.91,2.74,0.03,GUIDED,248.396
197,12.242,66,26.08,2.98,2.98,NULL,NULL,71,-0.194627,1.2553,0.00333562,9.96,37.600637,126.8680958,NULL,NULL,0.91,2.76,0.03,GUIDED,249.409
198,12.242,66,26,2.98,2.98,NULL,NULL,71,-0.192256,1.25385,0.00279171,9.96,37.600643,126.868119,NULL,NULL,0.92,2.76,0.02,GUIDED,250.429
199,12.242,66,26.08,2.97,2.97,NULL,NULL,71,-0.192624,1.25252,0.00509117,9.97,37.6006491,126.8681421,NULL,NULL,0.91,2.76,0.02,GUIDED,251.438
200,12.242,66,26,2.96,2.96,NULL,NULL,71,-0.193338,1.25212,0.00500397,9.97,37.6006571,126.8681728,NULL,NULL,0.9,2.76,0.02,GUIDED,252.456
201,12.242,65,26.08,2.97,2.97,NULL,NULL,71,-0.195446,1.25248,0.00174676,9.97,37.600663,126.868196,NULL,NULL,0.9,2.77,0.02,GUIDED,253.472
202,12.242,65,26.17,2.98,2.98,NULL,NULL,72,-0.19565,1.25761,0.000424153,9.97,37.600671,126.8682267,NULL,NULL,0.91,2.76,0.02,GUIDED,254.483
203,12.242,65,26,2.98,2.98,NULL,NULL,71,-0.195873,1.25345,0.00461894,9.98,37.6006792,126.8682577,NULL,NULL,0.9,2.79,0.01,GUIDED,255.494
204,12.242,65,26.17,2.98,2.98,NULL,NULL,72,-0.193403,1.25839,-0.00117448,9.98,37.6006871,126.8682887,NULL,NULL,0.88,2.8,0.01,GUIDED,256.504
205,12.242,65,26.08,2.97,2.97,NULL,NULL,71,-0.193538,1.25332,-0.000551518,9.98,37.6006952,126.8683197,NULL,NULL,0.92,2.79,0,GUIDED,257.515
206,12.242,64,26,2.97,2.97,NULL,NULL,71,-0.193377,1.25478,0.00137762,9.99,37.6007014,126.8683428,NULL,NULL,0.91,2.79,0.01,GUIDED,258.526
207,12.242,64,26.17,2.97,2.97,NULL,NULL,72,-0.195669,1.25697,0.00257398,9.99,37.6007095,126.8683737,NULL,NULL,0.9,2.81,0,GUIDED,259.536
208,12.242,64,26,2.98,2.98,NULL,NULL,71,-0.19327,1.25146,0.00147179,9.99,37.6007176,126.8684046,NULL,NULL,0.9,2.81,0,GUIDED,260.545
209,12.242,64,26.08,2.97,2.97,NULL,NULL,71,-0.193693,1.25278,0.0033095,9.99,37.6007256,126.8684353,NULL,NULL,0.9,2.8,0,GUIDED,261.554
210,12.242,64,26.08,2.98,2.98,NULL,NULL,71,-0.196908,1.2515,0.0032969,10,37.6007335,126.8684661,NULL,NULL,0.91,2.81,0,GUIDED,262.564
211,12.242,63,26,2.99,2.99,NULL,NULL,71,-0.193214,1.25574,0.00172996,10,37.6007415,126.8684971,NULL,NULL,0.9,2.81,0,GUIDED,263.577
212,12.242,63,26,2.98,2.98,NULL,NULL,71,-0.195815,1.25375,0.00152205,10.01,37.6007473,126.8685203,NULL,NULL,0.9,2.81,0,GUIDED,264.592
213,12.242,63,26,2.98,2.98,NULL,NULL,71,-0.195819,1.25644,-0.000470307,10.01,37.6007552,126.8685513,NULL,NULL,0.91,2.81,-0.01,GUIDED,265.666
214,12.242,63,26,2.99,2.99,NULL,NULL,71,-0.198295,1.25435,-0.00208251,10.01,37.6007612,126.8685745,NULL,NULL,0.93,2.81,-0.01,GUIDED,266.688
215,12.242,63,26.08,3,3,NULL,NULL,71,-0.197552,1.25632,-0.00206625,10.01,37.6007672,126.8685978,NULL,NULL,0.94,2.83,-0.01,GUIDED,267.7
216,12.242,63,25.92,3.01,3.01,NULL,NULL,71,-0.194063,1.25313,0.000556426,10.01,37.6007733,126.8686213,NULL,NULL,0.93,2.83,-0.01,GUIDED,268.713
217,12.242,62,26.08,2.98,2.98,NULL,NULL,72,-0.191524,1.2583,-0.00419005,10.01,37.6007813,126.8686525,NULL,NULL,0.91,2.83,-0.01,GUIDED,269.728
218,12.242,62,25.92,2.96,2.96,NULL,NULL,71,-0.19219,1.25275,-0.00362234,10.01,37.6007873,126.8686757,NULL,NULL,0.92,2.82,-0.01,GUIDED,270.742
219,12.242,62,26,2.95,2.95,NULL,NULL,71,-0.197016,1.25576,-0.00444349,10.02,37.6007953,126.8687064,NULL,NULL,0.92,2.82,-0.02,GUIDED,271.754
220,12.242,62,26,2.97,2.97,NULL,NULL,71,-0.195248,1.25436,7.43E-05,10.02,37.6008034,126.8687371,NULL,NULL,0.92,2.82,-0.02,GUIDED,272.763
221,12.242,62,25.92,2.97,2.97,NULL,NULL,72,-0.197477,1.25886,-0.00226286,10.02,37.6008095,126.8687602,NULL,NULL,0.93,2.83,-0.02,GUIDED,273.785
222,12.242,61,26,2.98,2.98,NULL,NULL,71,-0.197007,1.25189,0.00147039,10.02,37.6008175,126.868791,NULL,NULL,0.91,2.83,-0.02,GUIDED,274.797
223,12.242,61,26,2.99,2.99,NULL,NULL,72,-0.196904,1.26079,-0.00873139,10.02,37.6008254,126.868822,NULL,NULL,0.93,2.84,-0.01,GUIDED,275.814
224,12.242,61,25.75,3,3,NULL,NULL,71,-0.197484,1.25189,-0.00274848,10.02,37.6008295,126.8688375,NULL,NULL,0.95,2.83,-0.01,GUIDED,278.376
225,12.242,61,26,3,3,NULL,NULL,71,-0.195805,1.25195,0.000783433,10.01,37.6008355,126.8688607,NULL,NULL,0.92,2.83,-0.02,GUIDED,279.966
226,12.242,61,25.92,2.99,2.99,NULL,NULL,71,-0.196145,1.25235,-0.00414587,10.01,37.6008395,126.8688763,NULL,NULL,0.92,2.83,-0.01,GUIDED,281.005
227,12.242,61,25.92,2.99,2.99,NULL,NULL,71,-0.196756,1.25537,-0.00563578,10.01,37.6008454,126.8688995,NULL,NULL,0.93,2.83,-0.01,GUIDED,282.081
228,12.242,61,25.92,2.98,2.98,NULL,NULL,72,-0.199583,1.25818,-0.00586003,10.02,37.6008495,126.868915,NULL,NULL,0.93,2.84,-0.01,GUIDED,283.105
229,12.242,60,26,2.99,2.99,NULL,NULL,72,-0.197189,1.25747,-0.00372481,10.01,37.6008555,126.8689383,NULL,NULL,0.92,2.84,-0.01,GUIDED,284.173
230,12.242,60,25.92,2.99,2.99,NULL,NULL,72,-0.195413,1.25718,-0.00442897,10.01,37.6008596,126.8689538,NULL,NULL,0.92,2.84,-0.01,GUIDED,285.186
231,12.242,60,25.75,2.97,2.97,NULL,NULL,71,-0.197316,1.24914,-0.00357435,10.01,37.6008656,126.868977,NULL,NULL,0.92,2.83,-0.01,GUIDED,286.22
232,12.242,60,25.92,2.97,2.97,NULL,NULL,71,-0.196413,1.252,-0.00346367,10.01,37.6008696,126.8689925,NULL,NULL,0.92,2.84,-0.01,GUIDED,287.308
233,12.242,60,25.92,2.97,2.97,NULL,NULL,71,-0.197478,1.2563,-0.00807527,10.01,37.6008756,126.8690156,NULL,NULL,0.94,2.84,-0.01,GUIDED,288.367
234,12.242,60,25.75,2.97,2.97,NULL,NULL,71,-0.195231,1.2519,-0.00496925,10.01,37.6008797,126.869031,NULL,NULL,0.94,2.84,0,GUIDED,290.565
235,12.242,60,25.75,2.96,2.96,NULL,NULL,71,-0.197659,1.25189,-0.00372098,10.01,37.6008857,126.8690541,NULL,NULL,0.93,2.83,-0.01,GUIDED,292.282
236,12.242,60,25.92,2.96,2.96,NULL,NULL,71,-0.197876,1.25228,-0.00423745,10,37.6008877,126.8690618,NULL,NULL,0.93,2.84,-0.01,GUIDED,293.493
237,12.242,59,26,2.96,2.96,NULL,NULL,72,-0.196456,1.25703,-0.00389984,10,37.6008938,126.8690849,NULL,NULL,0.93,2.84,0,GUIDED,294.918
238,12.242,59,25.92,2.96,2.96,NULL,NULL,72,-0.196838,1.25865,-0.0049456,10,37.6008978,126.8691003,NULL,NULL,0.94,2.85,0,GUIDED,296.081
239,12.242,59,25.75,2.95,2.95,NULL,NULL,71,-0.196086,1.24929,-0.00130655,10,37.6009018,126.8691157,NULL,NULL,0.95,2.85,0,GUIDED,297.134
240,12.242,59,25.92,2.95,2.95,NULL,NULL,71,-0.195243,1.25411,0.000157673,10,37.6009058,126.8691311,NULL,NULL,0.94,2.86,0,GUIDED,298.412
241,12.242,59,26,2.94,2.94,NULL,NULL,72,-0.195538,1.25797,-0.00500366,9.99,37.6009116,126.8691541,NULL,NULL,0.93,2.85,0,GUIDED,299.839
242,12.242,59,25.75,2.93,2.93,NULL,NULL,71,-0.194149,1.2536,-0.00651198,9.99,37.6009173,126.869177,NULL,NULL,0.93,2.83,0,GUIDED,301.131
243,12.242,59,25.92,2.92,2.92,NULL,NULL,71,-0.194767,1.2523,-0.00311624,9.99,37.600923,126.8691998,NULL,NULL,0.93,2.82,0,GUIDED,302.267
244,12.242,58,26,2.92,2.92,NULL,NULL,72,-0.194777,1.25711,-0.00751497,9.99,37.6009288,126.8692226,NULL,NULL,0.94,2.83,0,GUIDED,303.354
245,12.242,58,25.92,2.91,2.91,NULL,NULL,72,-0.194326,1.2578,-0.0109745,9.98,37.6009346,126.8692454,NULL,NULL,0.96,2.82,0.01,GUIDED,304.387
246,12.242,58,25.92,2.91,2.91,NULL,NULL,71,-0.193711,1.25598,-0.00830876,9.98,37.6009385,126.8692605,NULL,NULL,0.97,2.83,0.01,GUIDED,305.398
247,12.242,58,25.84,2.9,2.9,NULL,NULL,71,-0.192846,1.25367,-0.00475139,9.98,37.6009444,126.8692832,NULL,NULL,0.96,2.82,0.01,GUIDED,307.315
248,12.242,58,25.84,2.89,2.89,NULL,NULL,71,-0.192656,1.25171,-0.00560497,9.98,37.6009502,126.8693057,NULL,NULL,0.94,2.81,0.01,GUIDED,308.789
249,12.242,58,26,2.88,2.88,NULL,NULL,71,-0.195265,1.25315,-0.00881209,9.98,37.600954,126.8693207,NULL,NULL,0.95,2.81,0.01,GUIDED,310.167
250,12.242,58,25.92,2.89,2.89,NULL,NULL,71,-0.195707,1.25394,-0.00912089,9.98,37.6009579,126.8693357,NULL,NULL,0.97,2.81,0.01,GUIDED,311.569
251,12.242,58,26,2.89,2.89,NULL,NULL,72,-0.193826,1.25902,-0.00797424,9.97,37.6009638,126.8693582,NULL,NULL,0.96,2.81,0.01,GUIDED,312.611
252,12.242,57,25.92,2.88,2.88,NULL,NULL,71,-0.191407,1.25553,-0.0112308,9.97,37.6009696,126.8693808,NULL,NULL,0.97,2.81,0.02,GUIDED,313.932
253,12.242,57,26,2.87,2.87,NULL,NULL,71,-0.193763,1.25664,-0.00761402,9.97,37.6009755,126.8694031,NULL,NULL,0.96,2.82,0.02,GUIDED,315.345
254,12.242,57,25.92,2.87,2.87,NULL,NULL,71,-0.191916,1.25427,-0.0106762,9.97,37.6009813,126.8694256,NULL,NULL,0.95,2.83,0.02,GUIDED,317.168
255,12.242,57,26,2.87,2.87,NULL,NULL,71,-0.191073,1.25146,-0.0104719,9.97,37.6009871,126.8694481,NULL,NULL,0.96,2.82,0.01,GUIDED,318.48
256,12.242,57,25.92,2.85,2.85,NULL,NULL,71,-0.191397,1.25534,-0.00988396,9.97,37.600993,126.8694703,NULL,NULL,0.97,2.81,0.02,GUIDED,319.883
257,12.242,57,25.92,2.84,2.84,NULL,NULL,71,-0.191738,1.25602,-0.00660042,9.97,37.6009989,126.8694925,NULL,NULL,0.96,2.81,0.01,GUIDED,321.04
258,12.242,56,26.17,2.84,2.84,NULL,NULL,71,-0.192261,1.25661,-0.00710142,9.97,37.6010048,126.8695146,NULL,NULL,0.95,2.81,0.01,GUIDED,322.177
259,12.242,56,26,2.84,2.84,NULL,NULL,71,-0.192215,1.2558,-0.00939752,9.97,37.6010105,126.8695367,NULL,NULL,0.95,2.81,0.02,GUIDED,323.338
260,12.242,56,25.92,2.84,2.84,NULL,NULL,71,-0.193461,1.25162,-0.00804019,9.97,37.6010144,126.8695515,NULL,NULL,0.96,2.82,0.02,GUIDED,324.386
261,12.242,56,26,2.84,2.84,NULL,NULL,71,-0.193196,1.25326,-0.00747852,9.97,37.6010182,126.8695664,NULL,NULL,0.97,2.82,0.01,GUIDED,325.445
262,12.242,56,25.92,2.85,2.85,NULL,NULL,71,-0.191303,1.25343,-0.00614525,9.98,37.601024,126.8695886,NULL,NULL,0.95,2.83,0.02,GUIDED,326.521
263,12.242,56,25.92,2.84,2.84,NULL,NULL,71,-0.192576,1.25124,-0.00477722,9.98,37.6010297,126.8696107,NULL,NULL,0.94,2.84,0.01,GUIDED,327.6
264,12.242,56,25.92,2.84,2.84,NULL,NULL,71,-0.189593,1.25253,-0.00866814,9.98,37.6010334,126.8696256,NULL,NULL,0.94,2.84,0.01,GUIDED,328.624
265,12.242,55,26.17,2.81,2.81,NULL,NULL,72,-0.187295,1.25853,-0.0130638,9.98,37.6010389,126.8696477,NULL,NULL,0.95,2.81,0,GUIDED,330.086
266,12.242,55,26,2.8,2.8,NULL,NULL,71,-0.190406,1.2566,-0.0106612,9.98,37.6010446,126.8696695,NULL,NULL,0.96,2.8,0.01,GUIDED,331.304
267,12.242,55,25.92,2.8,2.8,NULL,NULL,71,-0.191361,1.25465,-0.0109536,9.99,37.6010503,126.8696912,NULL,NULL,0.97,2.81,0.01,GUIDED,332.584
268,12.242,55,26,2.81,2.81,NULL,NULL,71,-0.190924,1.25028,-0.00731966,9.99,37.601056,126.869713,NULL,NULL,0.96,2.82,0,GUIDED,333.853
269,12.242,55,25.92,2.81,2.81,NULL,NULL,71,-0.190882,1.24865,-0.00748405,9.99,37.6010616,126.869735,NULL,NULL,0.95,2.82,0,GUIDED,334.952
270,12.242,55,26,2.8,2.8,NULL,NULL,71,-0.189359,1.25355,-0.0124444,9.99,37.6010672,126.8697569,NULL,NULL,0.95,2.82,0,GUIDED,336.105
271,12.242,55,26,2.79,2.79,NULL,NULL,71,-0.188908,1.25215,-0.0118066,9.99,37.6010729,126.8697784,NULL,NULL,0.96,2.8,0,GUIDED,337.12
272,12.242,54,26,2.79,2.79,NULL,NULL,71,-0.191692,1.25585,-0.0115971,10,37.6010767,126.8697929,NULL,NULL,0.97,2.81,0,GUIDED,338.144
273,12.242,54,25.92,2.79,2.79,NULL,NULL,71,-0.190762,1.25521,-0.00838438,10,37.6010825,126.8698146,NULL,NULL,0.96,2.82,0,GUIDED,339.253
274,12.242,54,26,2.79,2.79,NULL,NULL,71,-0.188215,1.25279,-0.00939154,10,37.6010862,126.8698291,NULL,NULL,0.94,2.82,0,GUIDED,340.275
275,12.242,54,26.17,2.78,2.78,NULL,NULL,72,-0.190133,1.25872,-0.0142133,10,37.6010918,126.8698507,NULL,NULL,0.95,2.81,-0.01,GUIDED,341.315
276,12.242,54,25.92,2.79,2.79,NULL,NULL,72,-0.191401,1.25799,-0.0117735,10.01,37.6010975,126.8698723,NULL,NULL,0.96,2.81,0,GUIDED,342.338
277,12.242,54,26,2.79,2.79,NULL,NULL,72,-0.192283,1.26002,-0.0108671,10.01,37.6011013,126.8698867,NULL,NULL,0.95,2.82,-0.01,GUIDED,343.365
278,12.242,54,25.92,2.8,2.8,NULL,NULL,71,-0.190725,1.25261,-0.00988645,10.01,37.601107,126.8699085,NULL,NULL,0.95,2.83,-0.01,GUIDED,344.642
279,12.242,53,26,2.8,2.8,NULL,NULL,71,-0.191481,1.25498,-0.00874239,10.01,37.6011127,126.8699302,NULL,NULL,0.95,2.84,-0.01,GUIDED,346.085
280,12.242,53,26.08,2.8,2.8,NULL,NULL,72,-0.189633,1.26265,-0.0104874,10.01,37.6011184,126.8699522,NULL,NULL,0.95,2.84,0,GUIDED,347.292
281,12.242,53,25.92,2.78,2.78,NULL,NULL,71,-0.188631,1.25464,-0.00950984,10.01,37.601124,126.8699739,NULL,NULL,0.94,2.82,-0.01,GUIDED,348.499
282,12.242,53,25.75,2.77,2.77,NULL,NULL,71,-0.190402,1.2526,-0.0105754,10.01,37.6011296,126.8699956,NULL,NULL,0.95,2.82,0,GUIDED,349.534
283,12.242,53,25.84,2.77,2.77,NULL,NULL,71,-0.190171,1.25396,-0.00723251,10.01,37.6011352,126.8700172,NULL,NULL,0.96,2.82,-0.01,GUIDED,350.623
284,12.242,53,25.92,2.77,2.77,NULL,NULL,72,-0.191095,1.25665,-0.0101676,10.01,37.6011407,126.8700387,NULL,NULL,0.96,2.83,-0.01,GUIDED,351.779
285,12.242,53,25.92,2.78,2.78,NULL,NULL,72,-0.189661,1.25878,-0.00928612,10.01,37.6011462,126.8700603,NULL,NULL,0.96,2.83,0,GUIDED,353.258
286,12.242,52,25.75,2.77,2.77,NULL,NULL,71,-0.190127,1.25307,-0.0104095,10.01,37.6011499,126.8700746,NULL,NULL,0.96,2.83,0,GUIDED,354.343
287,12.242,52,25.84,2.77,2.77,NULL,NULL,71,-0.188502,1.25314,-0.00818642,10,37.6011554,126.8700961,NULL,NULL,0.96,2.83,0,GUIDED,355.72
288,12.242,52,25.92,2.76,2.76,NULL,NULL,72,-0.187943,1.26018,-0.010917,10,37.6011609,126.8701177,NULL,NULL,0.96,2.81,0,GUIDED,356.742
289,12.242,52,25.92,2.75,2.75,NULL,NULL,71,-0.18761,1.25612,-0.0112886,10,37.6011664,126.8701391,NULL,NULL,0.97,2.81,0,GUIDED,357.848
290,12.242,52,25.67,2.74,2.74,NULL,NULL,71,-0.187283,1.24783,-0.00646345,10,37.6011719,126.8701604,NULL,NULL,0.95,2.81,0,GUIDED,359.464
291,12.242,52,25.75,2.74,2.74,NULL,NULL,71,-0.189472,1.2495,-0.0090902,10,37.6011755,126.8701746,NULL,NULL,0.94,2.81,0,GUIDED,360.479
292,12.242,51,25.92,2.74,2.74,NULL,NULL,71,-0.188226,1.25279,-0.0152785,9.99,37.6011826,126.8702031,NULL,NULL,0.96,2.81,0,GUIDED,362.149
293,12.242,51,25.92,2.74,2.74,NULL,NULL,72,-0.186547,1.25681,-0.0141053,9.99,37.6011901,126.8702316,NULL,NULL,0.98,2.79,0,GUIDED,363.593
294,12.242,51,25.92,2.73,2.73,NULL,NULL,71,-0.188947,1.25336,-0.0110669,9.99,37.6011958,126.8702528,NULL,NULL,0.96,2.78,0,GUIDED,365.009
295,12.242,51,25.84,2.75,2.75,NULL,NULL,72,-0.190773,1.25672,-0.0125131,9.99,37.6012033,126.8702811,NULL,NULL,0.95,2.81,0,GUIDED,366.86
296,12.242,51,26,2.76,2.76,NULL,NULL,72,-0.189733,1.25758,-0.0145375,9.99,37.601207,126.8702953,NULL,NULL,0.96,2.79,0,GUIDED,368.006
297,12.242,51,25.92,2.76,2.76,NULL,NULL,71,-0.191507,1.25353,-0.00955886,9.99,37.6012128,126.8703166,NULL,NULL,0.97,2.81,0,GUIDED,369.56
298,12.242,50,25.92,2.77,2.77,NULL,NULL,71,-0.191271,1.25269,-0.00734821,9.99,37.6012185,126.8703381,NULL,NULL,0.96,2.83,0,GUIDED,371.071
299,12.242,50,25.92,2.77,2.77,NULL,NULL,71,-0.188108,1.25214,-0.00795865,9.99,37.6012241,126.8703597,NULL,NULL,0.95,2.84,0,GUIDED,372.31
300,12.242,50,25.84,2.76,2.76,NULL,NULL,71,-0.187475,1.25293,-0.00925071,9.99,37.6012278,126.8703742,NULL,NULL,0.94,2.84,0,GUIDED,373.323
301,12.242,50,25.92,2.75,2.75,NULL,NULL,71,-0.189207,1.25229,-0.011281,9.99,37.6012333,126.8703957,NULL,NULL,0.95,2.82,0,GUIDED,374.333
302,12.242,50,25.92,2.75,2.75,NULL,NULL,71,-0.189893,1.25205,-0.0109087,10,37.601237,126.8704098,NULL,NULL,0.95,2.81,0,GUIDED,375.345
303,12.242,50,26,2.75,2.75,NULL,NULL,71,-0.192702,1.25201,-0.010358,10,37.6012406,126.870424,NULL,NULL,0.95,2.81,0,GUIDED,376.356
304,12.242,50,25.92,2.76,2.76,NULL,NULL,71,-0.191337,1.25527,-0.0119742,10,37.6012443,126.8704384,NULL,NULL,0.96,2.81,0,GUIDED,377.37
305,12.242,50,26,2.76,2.76,NULL,NULL,72,-0.191669,1.25991,-0.0111365,10,37.6012481,126.8704527,NULL,NULL,0.97,2.82,0,GUIDED,378.381
306,12.242,50,25.92,2.76,2.76,NULL,NULL,72,-0.19043,1.2575,-0.00930175,10,37.6012518,126.870467,NULL,NULL,0.96,2.83,0,GUIDED,379.392
307,12.242,49,25.92,2.76,2.76,NULL,NULL,71,-0.190625,1.25216,-0.00754009,10,37.6012555,126.8704814,NULL,NULL,0.95,2.83,0,GUIDED,380.403
308,12.242,49,25.92,2.76,2.76,NULL,NULL,71,-0.189112,1.25217,-0.00969209,10,37.6012592,126.8704957,NULL,NULL,0.95,2.83,0,GUIDED,381.415
309,12.242,49,26,2.75,2.75,NULL,NULL,71,-0.187906,1.25248,-0.00924842,10,37.601261,126.8705029,NULL,NULL,0.95,2.84,0,GUIDED,382.428
310,12.242,49,25.92,2.74,2.74,NULL,NULL,71,-0.187222,1.25643,-0.0103488,10,37.6012665,126.8705244,NULL,NULL,0.95,2.84,0,GUIDED,383.443
311,12.242,49,25.75,2.73,2.73,NULL,NULL,71,-0.186927,1.25406,-0.0103063,10,37.6012683,126.8705315,NULL,NULL,0.96,2.83,0,GUIDED,384.457
312,12.242,49,25.75,2.72,2.72,NULL,NULL,71,-0.188395,1.24884,-0.00994611,10,37.601272,126.8705457,NULL,NULL,0.95,2.82,0,GUIDED,385.473
313,12.242,49,25.92,2.72,2.72,NULL,NULL,71,-0.187287,1.25463,-0.0140964,10,37.6012774,126.870567,NULL,NULL,0.96,2.81,0,GUIDED,386.486
314,12.242,49,25.92,2.71,2.71,NULL,NULL,72,-0.186347,1.25889,-0.0100497,10,37.6012829,126.8705881,NULL,NULL,0.96,2.81,0,GUIDED,387.498
315,12.242,49,25.92,2.7,2.7,NULL,NULL,72,-0.186877,1.2587,-0.012597,10,37.6012866,126.8706021,NULL,NULL,0.96,2.81,0,GUIDED,388.509
316,12.242,48,25.92,2.7,2.7,NULL,NULL,71,-0.18907,1.25535,-0.0108657,10,37.6012921,126.870623,NULL,NULL,0.97,2.82,0,GUIDED,389.521
317,12.242,48,25.92,2.7,2.7,NULL,NULL,72,-0.187767,1.2598,-0.00979537,10,37.6012976,126.8706442,NULL,NULL,0.96,2.83,0,GUIDED,390.531
318,12.242,48,26,2.7,2.7,NULL,NULL,72,-0.186874,1.25808,-0.0117222,10,37.6012994,126.8706512,NULL,NULL,0.96,2.83,0,GUIDED,391.544
319,12.242,48,25.92,2.7,2.7,NULL,NULL,71,-0.185737,1.25526,-0.0115589,10,37.6013012,126.8706582,NULL,NULL,0.96,2.82,0,GUIDED,392.562
320,12.242,48,25.92,2.7,2.7,NULL,NULL,71,-0.18599,1.25214,-0.00866617,10,37.6013049,126.8706723,NULL,NULL,0.97,2.82,0,GUIDED,393.573
321,12.242,48,26,2.69,2.69,NULL,NULL,71,-0.18696,1.25531,-0.00709245,10,37.6013086,126.8706862,NULL,NULL,0.96,2.81,0,GUIDED,394.589
322,12.242,48,25.84,2.69,2.69,NULL,NULL,71,-0.188033,1.25577,-0.00964071,10,37.6013122,126.8707001,NULL,NULL,0.96,2.82,0,GUIDED,395.603
323,12.242,48,25.75,2.7,2.7,NULL,NULL,71,-0.187065,1.25048,-0.00829067,10.01,37.6013175,126.8707211,NULL,NULL,0.95,2.83,0,GUIDED,396.614
324,12.242,47,25.92,2.69,2.69,NULL,NULL,72,-0.184513,1.25853,-0.011908,10.01,37.6013229,126.870742,NULL,NULL,0.96,2.81,0,GUIDED,397.623
325,12.242,47,25.75,2.68,2.68,NULL,NULL,71,-0.188131,1.25357,-0.00934176,10.01,37.6013283,126.8707627,NULL,NULL,0.96,2.81,-0.01,GUIDED,398.634
326,12.242,47,25.92,2.68,2.68,NULL,NULL,71,-0.18632,1.25237,-0.0088069,10.01,37.6013337,126.8707835,NULL,NULL,0.95,2.81,-0.01,GUIDED,399.648
327,12.242,47,25.92,2.68,2.68,NULL,NULL,72,-0.187202,1.25839,-0.0104286,10.01,37.601339,126.8708045,NULL,NULL,0.96,2.81,0,GUIDED,400.671
328,12.242,47,25.92,2.69,2.69,NULL,NULL,71,-0.185665,1.25527,-0.0112209,10.01,37.6013426,126.8708185,NULL,NULL,0.97,2.81,-0.01,GUIDED,401.734
329,12.242,47,25.92,2.69,2.69,NULL,NULL,71,-0.186289,1.25239,-0.00887267,10.01,37.6013462,126.8708325,NULL,NULL,0.97,2.81,-0.01,GUIDED,402.782
330,12.242,47,25.92,2.69,2.69,NULL,NULL,71,-0.187003,1.25148,-0.00850624,10.01,37.6013498,126.8708465,NULL,NULL,0.96,2.82,-0.01,GUIDED,403.801
331,12.242,47,26,2.68,2.68,NULL,NULL,72,-0.185746,1.25884,-0.0121949,10.01,37.6013552,126.8708673,NULL,NULL,0.96,2.8,-0.01,GUIDED,404.837
332,12.242,46,25.92,2.68,2.68,NULL,NULL,71,-0.185489,1.25616,-0.0127015,10.01,37.6013606,126.8708881,NULL,NULL,0.96,2.78,-0.01,GUIDED,405.85
333,12.242,46,25.67,2.68,2.68,NULL,NULL,71,-0.189055,1.24962,-0.010525,10.01,37.6013642,126.8709019,NULL,NULL,0.95,2.77,-0.01,GUIDED,406.863
334,12.242,46,25.92,2.7,2.7,NULL,NULL,71,-0.189453,1.25368,-0.00918928,10.01,37.6013715,126.8709296,NULL,NULL,0.96,2.8,-0.01,GUIDED,407.989
335,12.242,46,25.92,2.71,2.71,NULL,NULL,72,-0.188109,1.25826,-0.0116167,10.01,37.601377,126.8709506,NULL,NULL,0.95,2.82,-0.01,GUIDED,408.998
336,12.242,46,25.75,2.71,2.71,NULL,NULL,71,-0.188043,1.25285,-0.0111659,10.01,37.6013825,126.8709716,NULL,NULL,0.96,2.81,-0.01,GUIDED,410.01
337,12.242,46,25.92,2.72,2.72,NULL,NULL,72,-0.190019,1.25703,-0.0086189,10.01,37.6013881,126.8709925,NULL,NULL,0.96,2.82,-0.01,GUIDED,411.022
338,12.242,45,25.84,2.72,2.72,NULL,NULL,71,-0.188712,1.25304,-0.00901165,10.01,37.6013937,126.8710138,NULL,NULL,0.96,2.82,-0.01,GUIDED,412.033
339,12.242,45,25.92,2.72,2.72,NULL,NULL,71,-0.190986,1.25158,-0.00785215,10.01,37.6013992,126.8710349,NULL,NULL,0.97,2.82,-0.01,GUIDED,413.041
340,12.242,45,25.92,2.73,2.73,NULL,NULL,71,-0.191037,1.25486,-0.00572932,10.01,37.601403,126.871049,NULL,NULL,0.97,2.84,-0.01,GUIDED,414.052
341,12.242,45,25.84,2.73,2.73,NULL,NULL,72,-0.187963,1.2581,-0.00838929,10.01,37.6014084,126.8710703,NULL,NULL,0.95,2.83,-0.01,GUIDED,415.063
342,12.242,45,25.75,2.72,2.72,NULL,NULL,71,-0.188684,1.25165,-0.00803246,10.01,37.6014121,126.8710845,NULL,NULL,0.96,2.82,-0.01,GUIDED,416.078
343,12.242,45,26,2.72,2.72,NULL,NULL,72,-0.18806,1.25673,-0.00590292,10.01,37.6014194,126.8711127,NULL,NULL,0.95,2.82,-0.01,GUIDED,417.089
344,12.242,45,25.84,2.72,2.72,NULL,NULL,72,-0.18875,1.25937,-0.00834302,10.01,37.6014229,126.8711268,NULL,NULL,0.95,2.82,-0.01,GUIDED,418.102
345,12.242,44,25.75,2.71,2.71,NULL,NULL,71,-0.189807,1.25035,-0.00572888,10.01,37.60143,126.8711548,NULL,NULL,0.96,2.81,-0.01,GUIDED,419.206
346,12.242,44,25.92,2.72,2.72,NULL,NULL,71,-0.1889,1.25542,-0.00775386,10.01,37.6014354,126.871176,NULL,NULL,0.95,2.82,-0.01,GUIDED,420.217
347,12.242,44,25.92,2.72,2.72,NULL,NULL,72,-0.187968,1.25727,-0.0121034,10.01,37.6014407,126.8711972,NULL,NULL,0.96,2.82,-0.01,GUIDED,421.227
348,12.242,44,25.75,2.71,2.71,NULL,NULL,71,-0.18527,1.25475,-0.00821209,10.01,37.6014462,126.8712183,NULL,NULL,0.97,2.82,0,GUIDED,422.239
349,12.242,44,25.84,2.69,2.69,NULL,NULL,71,-0.186601,1.25355,-0.00748458,10.01,37.6014517,126.8712392,NULL,NULL,0.97,2.8,-0.01,GUIDED,423.277
350,12.242,44,25.92,2.69,2.69,NULL,NULL,71,-0.188378,1.25229,-0.00776672,10,37.6014571,126.8712602,NULL,NULL,0.96,2.82,-0.01,GUIDED,424.339
351,12.242,43,25.75,2.69,2.69,NULL,NULL,71,-0.187457,1.2556,-0.00933404,10.01,37.6014626,126.8712813,NULL,NULL,0.96,2.81,0,GUIDED,425.357
352,12.242,43,25.92,2.69,2.69,NULL,NULL,72,-0.185292,1.25871,-0.0100428,10,37.601468,126.8713022,NULL,NULL,0.96,2.8,-0.01,GUIDED,426.372
353,12.242,43,25.75,2.68,2.68,NULL,NULL,71,-0.187081,1.25072,-0.00736156,10,37.6014735,126.8713231,NULL,NULL,0.97,2.79,0,GUIDED,427.384
354,12.242,43,25.92,2.69,2.69,NULL,NULL,72,-0.188521,1.25758,-0.00865904,10,37.6014791,126.871344,NULL,NULL,0.97,2.8,0,GUIDED,428.394
355,12.242,43,25.84,2.7,2.7,NULL,NULL,72,-0.19073,1.25692,-0.00652167,10,37.6014846,126.871365,NULL,NULL,0.97,2.82,0,GUIDED,429.467
356,12.242,43,25.92,2.71,2.71,NULL,NULL,71,-0.187549,1.25451,-0.0052893,10,37.6014883,126.871379,NULL,NULL,0.96,2.82,0,GUIDED,430.528
357,12.242,42,25.92,2.71,2.71,NULL,NULL,72,-0.188622,1.25878,-0.00931363,10,37.6014955,126.8714072,NULL,NULL,0.94,2.82,0,GUIDED,431.539
358,12.242,42,26,2.71,2.71,NULL,NULL,71,-0.188172,1.25662,-0.00908443,9.99,37.6015029,126.8714352,NULL,NULL,0.96,2.81,0,GUIDED,432.552
359,12.242,42,25.84,2.72,2.72,NULL,NULL,71,-0.190254,1.25561,-0.00522728,10,37.6015085,126.8714563,NULL,NULL,0.95,2.82,0,GUIDED,433.564
360,12.242,42,25.84,2.73,2.73,NULL,NULL,71,-0.190856,1.25215,-0.00450361,9.99,37.601514,126.8714773,NULL,NULL,0.95,2.82,0,GUIDED,434.575
361,12.242,42,25.84,2.74,2.74,NULL,NULL,71,-0.189657,1.25112,-0.00338802,9.99,37.6015195,126.8714984,NULL,NULL,0.94,2.83,0,GUIDED,435.585
362,12.242,42,26,2.74,2.74,NULL,NULL,71,-0.190921,1.25354,-0.00670649,9.99,37.6015249,126.8715196,NULL,NULL,0.93,2.83,0,GUIDED,436.604
363,12.242,42,25.92,2.75,2.75,NULL,NULL,71,-0.18936,1.25162,-0.00673272,9.99,37.6015304,126.8715409,NULL,NULL,0.94,2.84,0,GUIDED,437.628
364,12.242,41,26,2.75,2.75,NULL,NULL,72,-0.189339,1.26059,-0.00927325,9.99,37.601536,126.8715622,NULL,NULL,0.94,2.83,0,GUIDED,438.639
365,12.242,41,25.84,2.75,2.75,NULL,NULL,72,-0.188353,1.25982,-0.00756751,9.99,37.6015416,126.8715835,NULL,NULL,0.94,2.81,0,GUIDED,439.771
366,12.242,41,25.67,2.74,2.74,NULL,NULL,71,-0.191529,1.24566,-0.00355963,9.99,37.6015452,126.8715976,NULL,NULL,0.93,2.81,0,GUIDED,440.897
367,12.242,41,26,2.75,2.75,NULL,NULL,71,-0.194713,1.25647,-0.00376377,9.99,37.6015489,126.8716118,NULL,NULL,0.93,2.83,0,GUIDED,441.952
368,12.242,41,25.92,2.77,2.77,NULL,NULL,72,-0.192038,1.25709,-0.0074622,9.99,37.6015526,126.8716261,NULL,NULL,0.93,2.84,0,GUIDED,443.125
369,12.242,41,25.92,2.77,2.77,NULL,NULL,71,-0.190661,1.25196,-0.00698809,9.99,37.6015564,126.8716403,NULL,NULL,0.95,2.83,0,GUIDED,444.138
370,12.242,41,26,2.77,2.77,NULL,NULL,71,-0.190886,1.25601,-0.00405224,9.99,37.6015601,126.8716547,NULL,NULL,0.94,2.84,0,GUIDED,445.167
371,12.242,41,26,2.76,2.76,NULL,NULL,72,-0.187215,1.25806,-0.00797809,9.99,37.6015657,126.8716764,NULL,NULL,0.94,2.84,0,GUIDED,446.178
372,12.242,40,25.75,2.74,2.74,NULL,NULL,71,-0.189301,1.24556,-0.00177302,9.99,37.6015714,126.8716977,NULL,NULL,0.95,2.82,0,GUIDED,447.189
373,12.242,40,26,2.74,2.74,NULL,NULL,71,-0.191397,1.25468,-0.000521438,9.99,37.6015751,126.8717119,NULL,NULL,0.93,2.83,0,GUIDED,448.201
374,12.242,40,26,2.76,2.76,NULL,NULL,72,-0.191638,1.25985,-0.00642121,9.99,37.6015806,126.8717334,NULL,NULL,0.94,2.85,0,GUIDED,449.249
375,12.242,40,25.92,2.76,2.76,NULL,NULL,71,-0.18857,1.25405,-0.00467165,9.99,37.6015862,126.8717549,NULL,NULL,0.94,2.85,0,GUIDED,450.306
376,12.242,40,26,2.75,2.75,NULL,NULL,72,-0.188208,1.25775,-0.0063328,9.99,37.6015899,126.8717693,NULL,NULL,0.94,2.85,0,GUIDED,451.455
377,12.242,40,26,2.74,2.74,NULL,NULL,72,-0.187206,1.25728,-0.00530202,9.99,37.6015954,126.8717908,NULL,NULL,0.95,2.84,0,GUIDED,452.525
378,12.242,40,25.92,2.73,2.73,NULL,NULL,72,-0.188207,1.25711,-0.00304211,9.99,37.6015991,126.871805,NULL,NULL,0.94,2.84,0,GUIDED,453.538
379,12.242,39,26,2.73,2.73,NULL,NULL,72,-0.187122,1.2577,-0.00298124,9.99,37.6016028,126.8718192,NULL,NULL,0.94,2.84,0,GUIDED,454.558
380,12.242,39,25.92,2.72,2.72,NULL,NULL,71,-0.188989,1.25663,-0.00410598,9.99,37.6016082,126.8718404,NULL,NULL,0.93,2.83,0,GUIDED,455.662
381,12.242,39,25.92,2.73,2.73,NULL,NULL,71,-0.188961,1.25053,-0.00218867,9.99,37.6016136,126.8718618,NULL,NULL,0.95,2.84,0,GUIDED,456.672
382,12.242,39,26,2.74,2.74,NULL,NULL,71,-0.189146,1.25177,-0.00471333,9.99,37.6016173,126.871876,NULL,NULL,0.95,2.84,0,GUIDED,457.683
383,12.242,39,26.08,2.74,2.74,NULL,NULL,72,-0.188136,1.25807,-0.00324074,10,37.6016228,126.8718973,NULL,NULL,0.96,2.83,0,GUIDED,458.863
384,12.242,39,25.92,2.74,2.74,NULL,NULL,71,-0.186314,1.25255,-0.000137993,10,37.6016283,126.8719186,NULL,NULL,0.95,2.82,0,GUIDED,460.074
385,12.242,39,25.92,2.73,2.73,NULL,NULL,71,-0.189109,1.25207,-0.00432864,10,37.6016337,126.8719399,NULL,NULL,0.95,2.81,0,GUIDED,461.283
386,12.242,38,25.92,2.74,2.74,NULL,NULL,72,-0.189611,1.2572,-0.00536496,10,37.6016392,126.8719612,NULL,NULL,0.96,2.83,0,GUIDED,462.294
387,12.242,38,25.92,2.74,2.74,NULL,NULL,71,-0.187416,1.25533,-0.00291867,10,37.6016447,126.8719825,NULL,NULL,0.96,2.82,0,GUIDED,463.379
388,12.242,38,25.84,2.73,2.73,NULL,NULL,71,-0.186644,1.25487,-0.00234908,10,37.6016483,126.8719967,NULL,NULL,0.96,2.81,0,GUIDED,464.578
389,12.242,38,26,2.73,2.73,NULL,NULL,71,-0.187005,1.25489,-0.00207268,10,37.601652,126.8720107,NULL,NULL,0.96,2.81,-0.01,GUIDED,465.639
390,12.242,38,25.92,2.73,2.73,NULL,NULL,71,-0.187323,1.25449,-0.00290816,10,37.6016574,126.872032,NULL,NULL,0.95,2.82,0,GUIDED,466.788
391,12.242,38,25.92,2.73,2.73,NULL,NULL,71,-0.188151,1.25312,-0.00590739,10,37.6016628,126.8720533,NULL,NULL,0.97,2.81,0,GUIDED,467.802
392,12.242,38,25.92,2.74,2.74,NULL,NULL,71,-0.188937,1.2552,-0.00219275,10.01,37.6016683,126.8720746,NULL,NULL,0.98,2.8,0,GUIDED,468.834
393,12.242,37,26,2.74,2.74,NULL,NULL,72,-0.188958,1.25894,-0.00424939,10.01,37.6016738,126.8720959,NULL,NULL,0.96,2.8,0,GUIDED,469.844
394,12.242,37,25.92,2.74,2.74,NULL,NULL,71,-0.18774,1.25247,-0.00464466,10.01,37.6016793,126.8721172,NULL,NULL,0.96,2.79,-0.01,GUIDED,470.947
395,12.242,37,25.84,2.74,2.74,NULL,NULL,71,-0.188888,1.24972,-0.00177697,10.01,37.6016848,126.8721384,NULL,NULL,0.95,2.8,-0.01,GUIDED,472.012
396,12.242,37,25.92,2.74,2.74,NULL,NULL,72,-0.188673,1.25694,-0.00633267,10.01,37.6016902,126.8721597,NULL,NULL,0.95,2.79,-0.01,GUIDED,473.027
397,12.242,37,26,2.74,2.74,NULL,NULL,72,-0.192593,1.25657,-0.00642075,10.01,37.6016958,126.8721808,NULL,NULL,0.97,2.79,-0.01,GUIDED,474.038
398,12.242,37,25.84,2.76,2.76,NULL,NULL,71,-0.190215,1.25114,-0.00143342,10.01,37.6017016,126.8722023,NULL,NULL,0.97,2.81,-0.01,GUIDED,475.104
399,12.242,37,26,2.77,2.77,NULL,NULL,71,-0.190203,1.25369,-0.000224379,10.01,37.6017035,126.8722094,NULL,NULL,0.96,2.81,-0.01,GUIDED,476.116
400,12.242,36,26,2.77,2.77,NULL,NULL,72,-0.191092,1.2591,-0.00387118,10.01,37.6017091,126.8722309,NULL,NULL,0.95,2.82,0,GUIDED,477.3
401,12.242,36,25.92,2.78,2.78,NULL,NULL,72,-0.191665,1.2567,-0.0061337,10.01,37.601711,126.8722381,NULL,NULL,0.95,2.82,-0.01,GUIDED,478.311
402,12.242,36,25.84,2.78,2.78,NULL,NULL,71,-0.190686,1.25439,-0.00572694,10.01,37.6017167,126.8722597,NULL,NULL,0.95,2.82,0,GUIDED,479.367
403,12.242,36,25.75,2.78,2.78,NULL,NULL,71,-0.191395,1.25217,-0.00429928,10.01,37.6017205,126.8722741,NULL,NULL,0.96,2.82,-0.01,GUIDED,480.42
404,12.242,36,25.75,2.78,2.78,NULL,NULL,71,-0.190682,1.25342,-0.00184502,10.01,37.6017244,126.8722884,NULL,NULL,0.97,2.82,0,GUIDED,481.46
405,12.242,36,26.17,2.78,2.78,NULL,NULL,72,-0.1903,1.26016,-0.00300337,10,37.6017282,126.8723028,NULL,NULL,0.95,2.83,-0.01,GUIDED,482.563
406,12.242,36,25.92,2.78,2.78,NULL,NULL,71,-0.192339,1.25602,-0.00218262,10,37.601732,126.8723171,NULL,NULL,0.95,2.82,0,GUIDED,483.592
407,12.242,36,26,2.79,2.79,NULL,NULL,72,-0.193507,1.25693,0.00160823,10,37.6017376,126.8723387,NULL,NULL,0.93,2.83,0,GUIDED,484.716
408,12.242,36,25.84,2.8,2.8,NULL,NULL,71,-0.191416,1.25646,-0.00133061,10,37.6017414,126.8723532,NULL,NULL,0.93,2.84,0,GUIDED,485.766
409,12.242,35,25.92,2.8,2.8,NULL,NULL,71,-0.190914,1.25274,-0.00212774,10,37.601747,126.8723749,NULL,NULL,0.94,2.82,0,GUIDED,486.782
410,12.242,35,26,2.8,2.8,NULL,NULL,71,-0.192633,1.25509,-0.00167787,10,37.6017544,126.8724038,NULL,NULL,0.94,2.83,0,GUIDED,487.795
411,12.242,35,25.75,2.8,2.8,NULL,NULL,71,-0.191607,1.24913,-0.000405769,10,37.60176,126.8724256,NULL,NULL,0.94,2.82,0,GUIDED,488.807
412,12.242,35,25.84,2.8,2.8,NULL,NULL,71,-0.191657,1.25098,0.0015066,10,37.6017674,126.8724545,NULL,NULL,0.94,2.83,0,GUIDED,489.917
413,12.242,35,25.92,2.8,2.8,NULL,NULL,71,-0.191922,1.25642,-0.00348426,10,37.6017747,126.8724835,NULL,NULL,0.94,2.82,0,GUIDED,490.949
414,12.242,34,25.75,2.8,2.8,NULL,NULL,71,-0.191115,1.24924,0.00218562,10,37.6017822,126.8725125,NULL,NULL,0.96,2.84,0,GUIDED,491.963
415,12.242,34,25.92,2.79,2.79,NULL,NULL,71,-0.188723,1.25662,-0.00193053,10,37.6017878,126.8725342,NULL,NULL,0.96,2.81,0,GUIDED,492.975
416,12.242,34,25.92,2.78,2.78,NULL,NULL,71,-0.190886,1.25302,-0.00118341,10,37.6017933,126.8725557,NULL,NULL,0.96,2.81,0,GUIDED,493.989
417,12.242,34,26,2.78,2.78,NULL,NULL,71,-0.192833,1.2559,-0.00266312,10,37.6017989,126.8725775,NULL,NULL,0.97,2.82,0,GUIDED,495.006
418,12.242,34,25.92,2.79,2.79,NULL,NULL,71,-0.189437,1.25427,-0.00238122,10,37.6018063,126.8726066,NULL,NULL,0.96,2.83,0,GUIDED,496.019
419,12.242,34,25.92,2.79,2.79,NULL,NULL,71,-0.186858,1.25192,-0.00353333,10,37.60181,126.8726211,NULL,NULL,0.96,2.83,0,GUIDED,497.034
420,12.242,33,25.92,2.76,2.76,NULL,NULL,71,-0.188222,1.25416,-0.00635193,10,37.6018174,126.8726499,NULL,NULL,0.95,2.8,0,GUIDED,498.056
421,12.242,33,26,2.77,2.77,NULL,NULL,72,-0.193702,1.25777,-0.00487712,10,37.601825,126.8726785,NULL,NULL,0.95,2.8,0,GUIDED,499.067
422,12.242,33,26,2.81,2.81,NULL,NULL,71,-0.192109,1.25554,-0.00220841,10,37.6018345,126.8727144,NULL,NULL,0.95,2.82,0,GUIDED,500.08
423,12.242,33,25.84,2.81,2.81,NULL,NULL,71,-0.189765,1.25263,-0.00249509,10,37.6018441,126.8727506,NULL,NULL,0.95,2.82,0,GUIDED,501.093
424,12.242,32,25.84,2.8,2.8,NULL,NULL,71,-0.193671,1.25445,0.000119584,10,37.6018519,126.8727796,NULL,NULL,0.95,2.82,0,GUIDED,502.102
425,12.242,32,25.92,2.81,2.81,NULL,NULL,72,-0.191748,1.25792,-0.001969,10,37.6018595,126.8728086,NULL,NULL,0.93,2.83,0,GUIDED,503.112
426,12.242,32,25.92,2.81,2.81,NULL,NULL,72,-0.193231,1.25733,-0.00262393,9.99,37.601867,126.8728377,NULL,NULL,0.94,2.81,0,GUIDED,504.124
427,12.242,32,25.92,2.82,2.82,NULL,NULL,71,-0.193882,1.24853,0.00260691,9.99,37.6018747,126.8728669,NULL,NULL,0.94,2.83,0,GUIDED,505.146
428,12.242,32,25.92,2.83,2.83,NULL,NULL,72,-0.195592,1.25862,0.00041332,9.99,37.6018803,126.8728888,NULL,NULL,0.93,2.84,0,GUIDED,506.158
429,12.242,31,25.92,2.85,2.85,NULL,NULL,71,-0.193504,1.254,-0.00316547,9.99,37.6018859,126.872911,NULL,NULL,0.94,2.86,0,GUIDED,507.17
430,12.242,31,26,2.85,2.85,NULL,NULL,72,-0.189475,1.25934,-0.00240497,9.99,37.6018915,126.8729332,NULL,NULL,0.94,2.83,0,GUIDED,508.19
431,12.242,31,26,2.83,2.83,NULL,NULL,72,-0.191299,1.2612,-0.00218466,9.99,37.6018953,126.8729478,NULL,NULL,0.94,2.83,0,GUIDED,509.202
432,12.242,31,25.67,2.82,2.82,NULL,NULL,71,-0.191559,1.24709,0.000955165,9.99,37.6019009,126.8729699,NULL,NULL,0.95,2.82,0,GUIDED,510.213
433,12.242,31,25.92,2.83,2.83,NULL,NULL,71,-0.190714,1.25447,-0.00388719,9.99,37.6019102,126.8730064,NULL,NULL,0.94,2.83,0,GUIDED,511.225
434,12.242,31,25.92,2.83,2.83,NULL,NULL,71,-0.194188,1.25302,-0.00326002,9.99,37.6019178,126.8730357,NULL,NULL,0.96,2.81,0,GUIDED,512.236
435,12.242,30,25.92,2.84,2.84,NULL,NULL,71,-0.192973,1.2499,-0.000160515,9.99,37.6019236,126.8730577,NULL,NULL,0.96,2.83,0,GUIDED,513.26
436,12.242,30,25.92,2.84,2.84,NULL,NULL,71,-0.190386,1.25114,-0.00147789,9.99,37.6019331,126.8730946,NULL,NULL,0.94,2.82,0,GUIDED,514.276
437,12.242,30,25.84,2.83,2.83,NULL,NULL,71,-0.191803,1.25319,-0.00494466,9.99,37.6019407,126.8731238,NULL,NULL,0.95,2.8,0.01,GUIDED,515.286
438,12.242,30,25.92,2.83,2.83,NULL,NULL,71,-0.193825,1.25526,-0.00183326,9.99,37.6019446,126.8731384,NULL,NULL,0.95,2.81,0,GUIDED,516.349
