id,voltage,battery_remaining,current_drawn,ground_speed,air_speed,nav_roll,nav_pitch,nav_bearing,pitch,yaw,roll,alt,lat,lon,payload,distance_frm_home,velocity_x,velocity_y,velocity_z,mode,flight_time
2,12.242,98,24.67,0.15,0.15,NULL,NULL,1,-0.011012,0.033182,0.0594851,9.83,37.5994476,126.863502,NULL,NULL,-0.04,0.33,0.1,GUIDED,34.7563
3,12.242,98,25.25,0.59,0.59,NULL,NULL,29,-0.0925818,0.510071,0.118811,9.88,37.599448,126.8635048,NULL,NULL,0.06,0.77,0.09,GUIDED,35.7703
4,12.242,97,25.09,0.97,0.97,NULL,NULL,48,-0.126415,0.8435,0.071439,9.92,37.5994486,126.8635102,NULL,NULL,0.16,1.14,0.06,GUIDED,36.7802
5,12.193,97,28.33,1.5,1.5,NULL,NULL,74,-0.179365,1.2956,-0.0202686,9.95,37.5994505,126.8635214,NULL,NULL,0.39,1.55,0.03,GUIDED,37.7902
6,12.242,97,25.59,1.93,1.93,NULL,NULL,72,-0.229976,1.25707,-0.0160245,9.97,37.5994543,126.8635365,NULL,NULL,0.75,2.03,0.02,GUIDED,38.8242
7,12.193,97,26.5,2.61,2.61,NULL,NULL,71,-0.273253,1.25271,0.0138186,9.97,37.5994598,126.863556,NULL,NULL,0.93,2.65,0,GUIDED,39.8342
8,12.193,97,26.75,3.52,3.52,NULL,NULL,72,-0.326237,1.26037,-0.00179305,9.97,37.5994686,126.8635902,NULL,NULL,1.19,3.48,0.01,GUIDED,40.8441
9,12.193,97,27.33,4.24,4.24,NULL,NULL,71,-0.382958,1.2563,0.00620213,9.97,37.5994797,126.8636334,NULL,NULL,1.46,4.32,0.01,GUIDED,41.8521
10,12.193,96,27.75,4.81,4.81,NULL,NULL,72,-0.424867,1.26117,0.000794693,9.97,37.5994895,126.8636719,NULL,NULL,1.69,4.96,0.01,GUIDED,42.8631
11,12.193,96,28.25,5.4,5.4,NULL,NULL,72,-0.451831,1.25706,0.00697096,9.96,37.5994969,126.8637006,NULL,NULL,1.84,5.41,0.01,GUIDED,43.876
12,12.193,96,28.99,6.42,6.42,NULL,NULL,71,-0.501743,1.25397,0.0115425,9.95,37.5995135,126.8637656,NULL,NULL,2.13,6.33,0.02,GUIDED,44.887
13,12.193,96,29.57,7.23,7.23,NULL,NULL,72,-0.530844,1.26,0.00473401,9.95,37.5995276,126.8638211,NULL,NULL,2.35,7,0.03,GUIDED,45.9
14,12.143,96,29.91,7.77,7.77,NULL,NULL,71,-0.551787,1.25245,0.00912142,9.96,37.599543,126.8638817,NULL,NULL,2.53,7.58,0.02,GUIDED,46.9129
15,12.143,95,30.41,8.57,8.57,NULL,NULL,72,-0.578676,1.25849,0.00689452,9.95,37.5995653,126.8639694,NULL,NULL,2.75,8.27,0.02,GUIDED,47.9279
16,12.143,95,30.9,9.14,9.14,NULL,NULL,72,-0.597515,1.26035,0.00366061,9.95,37.5995833,126.8640399,NULL,NULL,2.91,8.73,0.03,GUIDED,48.9399
17,12.143,95,31.4,9.53,9.53,NULL,NULL,72,-0.614937,1.26028,0.00128261,9.95,37.5996024,126.8641141,NULL,NULL,3.07,9.16,0.02,GUIDED,49.9509
18,12.143,95,31.4,10.03,10.03,NULL,NULL,71,-0.629602,1.24339,0.0198335,9.95,37.5996225,126.8641917,NULL,NULL,3.17,9.57,0.02,GUIDED,51.0159
19,12.143,95,31.82,10.26,10.26,NULL,NULL,71,-0.637587,1.25281,0.0139763,9.95,37.5996363,126.8642452,NULL,NULL,3.21,9.83,0.03,GUIDED,52.0499
20,12.143,95,31.9,10.66,10.66,NULL,NULL,71,-0.650916,1.25229,0.00594827,9.96,37.5996575,126.8643278,NULL,NULL,3.33,10.13,0.03,GUIDED,53.0588
21,12.143,94,32.57,10.85,10.85,NULL,NULL,71,-0.662974,1.25655,0.00319678,9.96,37.5996798,126.8644129,NULL,NULL,3.45,10.44,0.02,GUIDED,54.0718
22,12.143,94,32.65,11.32,11.32,NULL,NULL,72,-0.671941,1.25877,0.00209905,9.96,37.5997029,126.8645004,NULL,NULL,3.57,10.73,0.03,GUIDED,55.0818
23,12.143,94,32.9,11.63,11.63,NULL,NULL,72,-0.679022,1.2605,0.00282463,9.96,37.5997266,126.8645903,NULL,NULL,3.62,10.99,0.03,GUIDED,56.0897
24,12.143,94,33.06,11.97,11.97,NULL,NULL,71,-0.688212,1.2446,0.0168104,9.96,37.599759,126.8647131,NULL,NULL,3.7,11.31,0.03,GUIDED,57.0987
25,12.143,93,33.31,12.15,12.15,NULL,NULL,71,-0.693768,1.25556,0.00623744,9.96,37.5997838,126.8648072,NULL,NULL,3.71,11.51,0.03,GUIDED,58.1097
26,12.094,93,33.73,12.35,12.35,NULL,NULL,72,-0.701849,1.2585,-0.00647704,9.96,37.5998089,126.8649028,NULL,NULL,3.78,11.69,0.02,GUIDED,59.1206
27,12.094,93,33.73,12.62,12.62,NULL,NULL,71,-0.707423,1.24881,0.00798184,9.96,37.5998434,126.8650323,NULL,NULL,3.86,11.92,0.02,GUIDED,60.1316
28,12.094,93,33.9,12.75,12.75,NULL,NULL,71,-0.713065,1.25525,7.72959E-05,9.97,37.5998788,126.8651641,NULL,NULL,3.93,12.13,0.02,GUIDED,61.1446
29,12.094,92,33.98,12.95,12.95,NULL,NULL,71,-0.717443,1.25125,0.00695096,9.97,37.5999057,126.8652642,NULL,NULL,3.95,12.24,0.01,GUIDED,62.1555
30,12.094,92,34.14,13.1,13.1,NULL,NULL,71,-0.725139,1.24974,0.00435212,9.98,37.5999419,126.865399,NULL,NULL,3.99,12.4,0.01,GUIDED,63.1675
31,12.094,92,34.39,13.21,13.21,NULL,NULL,71,-0.726922,1.25005,0.0112055,9.98,37.5999695,126.8655014,NULL,NULL,4,12.55,0,GUIDED,64.1785
32,12.094,92,34.39,13.33,13.33,NULL,NULL,72,-0.731065,1.25814,-0.00307711,9.98,37.599997,126.8656046,NULL,NULL,4.04,12.65,0.01,GUIDED,65.1875
33,12.094,92,34.64,13.44,13.44,NULL,NULL,72,-0.734075,1.26097,-0.00036145,9.99,37.6000344,126.8657432,NULL,NULL,4.11,12.75,0,GUIDED,66.1984
34,12.094,91,34.56,13.51,13.51,NULL,NULL,72,-0.734023,1.26372,-0.00633939,9.99,37.6000627,126.8658478,NULL,NULL,4.14,12.82,0.01,GUIDED,67.2124
35,12.094,91,34.48,13.56,13.56,NULL,NULL,72,-0.741166,1.24857,0.0123871,9.99,37.6000909,126.8659528,NULL,NULL,4.13,12.88,0,GUIDED,68.2254
36,12.094,91,34.48,13.63,13.63,NULL,NULL,71,-0.745467,1.24082,0.0267893,10,37.6001097,126.8660232,NULL,NULL,4.09,12.96,0,GUIDED,69.2423
37,12.094,91,35.06,13.71,13.71,NULL,NULL,71,-0.746062,1.25288,0.0141875,9.99,37.6001282,126.8660941,NULL,NULL,4.05,13.06,0,GUIDED,70.2573
38,12.094,91,34.81,13.81,13.81,NULL,NULL,72,-0.748069,1.25781,-0.00478824,10,37.600156,126.8662013,NULL,NULL,4.11,13.13,0,GUIDED,71.2713
39,12.094,90,35.14,13.87,13.87,NULL,NULL,71,-0.748463,1.2551,0.00201272,10,37.6001843,126.8663089,NULL,NULL,4.18,13.19,0,GUIDED,72.2832
40,12.094,90,35.06,13.93,13.93,NULL,NULL,72,-0.749512,1.2583,0.000346315,10,37.6002034,126.8663809,NULL,NULL,4.2,13.23,0,GUIDED,73.2972
41,12.094,90,34.98,14.01,14.01,NULL,NULL,72,-0.750534,1.2572,0.00707893,10,37.6002416,126.8665255,NULL,NULL,4.18,13.27,0,GUIDED,74.3102
42,12.094,90,35.31,14.05,14.05,NULL,NULL,72,-0.757723,1.25731,0.00135093,10,37.6002701,126.8666342,NULL,NULL,4.2,13.33,-0.01,GUIDED,75.3202
43,12.094,89,35.06,14.15,14.15,NULL,NULL,71,-0.755066,1.24722,0.0157053,10,37.6003084,126.8667802,NULL,NULL,4.19,13.41,0,GUIDED,76.3331
44,12.094,89,35.47,14.21,14.21,NULL,NULL,72,-0.761035,1.26262,0.00071527,10,37.6003464,126.8669273,NULL,NULL,4.2,13.52,0,GUIDED,77.3471
45,12.094,89,35.31,14.29,14.29,NULL,NULL,71,-0.758165,1.25447,0.00490696,10,37.6003848,126.8670752,NULL,NULL,4.29,13.55,0,GUIDED,78.3581
46,12.094,89,35.31,14.3,14.3,NULL,NULL,72,-0.758912,1.26111,0.00284078,10.01,37.6004137,126.8671862,NULL,NULL,4.27,13.56,-0.01,GUIDED,79.366
47,12.094,88,35.47,14.32,14.32,NULL,NULL,72,-0.761406,1.25823,0.00309144,10.01,37.6004425,126.8672973,NULL,NULL,4.28,13.57,-0.01,GUIDED,80.381
48,12.094,88,35.56,14.38,14.38,NULL,NULL,71,-0.767002,1.25567,0.0061498,10.01,37.6004809,126.8674459,NULL,NULL,4.28,13.63,-0.01,GUIDED,81.392
49,12.094,88,35.56,14.46,14.46,NULL,NULL,71,-0.766444,1.25026,0.0150116,10.01,37.6005098,126.867558,NULL,NULL,4.28,13.71,-0.01,GUIDED,82.417
50,12.094,88,35.47,14.47,14.47,NULL,NULL,71,-0.765364,1.25614,0.00730167,10.01,37.6005289,126.8676331,NULL,NULL,4.26,13.74,-0.01,GUIDED,83.4559
51,12.094,88,35.56,14.49,14.49,NULL,NULL,72,-0.765103,1.26267,-0.00198124,10.01,37.6005385,126.8676707,NULL,NULL,4.26,13.73,0,GUIDED,84.8923
52,12.094,88,35.47,14.49,14.49,NULL,NULL,72,-0.766745,1.26827,-0.010768,10.01,37.6005577,126.8677458,NULL,NULL,4.31,13.72,0,GUIDED,85.9073
53,12.094,87,35.31,14.5,14.5,NULL,NULL,71,-0.765744,1.25062,0.00377337,10.01,37.6005771,126.8678208,NULL,NULL,4.36,13.71,-0.01,GUIDED,87.0694
54,12.094,87,35.31,14.5,14.5,NULL,NULL,71,-0.769957,1.24458,0.0189479,10.01,37.6006063,126.8679334,NULL,NULL,4.32,13.75,-0.01,GUIDED,88.2105
55,12.094,87,35.47,14.53,14.53,NULL,NULL,71,-0.769722,1.25435,0.010477,10.01,37.6006256,126.8680087,NULL,NULL,4.29,13.79,-0.01,GUIDED,89.2275
56,12.094,87,35.72,14.54,14.54,NULL,NULL,72,-0.770173,1.26252,-0.00541088,10.01,37.6006448,126.8680842,NULL,NULL,4.31,13.81,-0.01,GUIDED,90.2705
57,12.094,87,35.47,14.58,14.58,NULL,NULL,71,-0.769929,1.24741,0.00621708,10.01,37.600674,126.8681975,NULL,NULL,4.39,13.83,0,GUIDED,91.2834
58,12.094,86,35.81,14.6,14.6,NULL,NULL,71,-0.769598,1.25065,0.0119849,10,37.600713,126.8683488,NULL,NULL,4.35,13.86,-0.01,GUIDED,92.2964
59,12.094,86,35.56,14.66,14.66,NULL,NULL,71,-0.773862,1.24656,0.00771155,10,37.6007519,126.8685004,NULL,NULL,4.39,13.9,0,GUIDED,93.3074
60,12.094,86,35.56,14.68,14.68,NULL,NULL,71,-0.771077,1.24886,0.0124278,10.01,37.6007812,126.8686144,NULL,NULL,4.36,13.9,0,GUIDED,94.3164
61,12.094,86,35.97,14.68,14.68,NULL,NULL,72,-0.773772,1.26664,-0.0159199,10,37.6008105,126.8687284,NULL,NULL,4.41,13.91,-0.01,GUIDED,95.3834
62,12.094,86,35.56,14.71,14.71,NULL,NULL,71,-0.773455,1.25431,-0.00301802,10,37.6008303,126.8688045,NULL,NULL,4.47,13.91,0,GUIDED,96.3953
63,12.094,85,35.56,14.73,14.73,NULL,NULL,71,-0.77276,1.23955,0.0286298,10.01,37.6008698,126.8689569,NULL,NULL,4.37,13.94,0,GUIDED,97.4103
64,12.094,85,35.72,14.7,14.7,NULL,NULL,72,-0.772776,1.26729,-0.0104692,10.01,37.6008892,126.8690331,NULL,NULL,4.37,13.93,0,GUIDED,98.4213
65,12.094,85,35.89,14.71,14.71,NULL,NULL,72,-0.776031,1.26056,-0.00887799,10,37.6009187,126.8691472,NULL,NULL,4.47,13.92,-0.01,GUIDED,99.4313
66,12.094,85,35.56,14.74,14.74,NULL,NULL,70,-0.777886,1.23912,0.0186454,10,37.6009387,126.8692234,NULL,NULL,4.49,13.95,0,GUIDED,100.441
67,12.094,85,35.81,14.78,14.78,NULL,NULL,72,-0.775199,1.25669,0.00989089,10,37.6009683,126.8693382,NULL,NULL,4.39,14.01,0,GUIDED,101.555
68,12.094,84,35.72,14.78,14.78,NULL,NULL,71,-0.775283,1.25575,-0.00292042,10,37.6009877,126.8694149,NULL,NULL,4.39,14.01,0,GUIDED,102.571
69,12.094,84,35.72,14.79,14.79,NULL,NULL,71,-0.776296,1.25552,-0.00160884,10,37.6010272,126.869568,NULL,NULL,4.48,13.96,0,GUIDED,103.582
70,12.094,84,36.06,14.8,14.8,NULL,NULL,72,-0.779126,1.26345,-0.00926425,9.99,37.6010571,126.8696828,NULL,NULL,4.47,14,0,GUIDED,104.596
71,12.094,84,35.81,14.84,14.84,NULL,NULL,71,-0.775255,1.25412,0.00517624,9.99,37.6010971,126.8698361,NULL,NULL,4.48,14.01,0,GUIDED,105.607
72,12.094,83,35.72,14.84,14.84,NULL,NULL,71,-0.777689,1.24571,0.00874463,9.99,37.601137,126.8699896,NULL,NULL,4.46,14.03,0,GUIDED,106.616
73,12.094,83,35.89,14.87,14.87,NULL,NULL,71,-0.777368,1.24819,0.00836792,9.99,37.6011769,126.8701434,NULL,NULL,4.44,14.07,0,GUIDED,107.627
74,12.094,83,35.89,14.9,14.9,NULL,NULL,71,-0.778569,1.25357,0.00516093,9.99,37.6012167,126.8702973,NULL,NULL,4.44,14.05,0,GUIDED,108.641
75,12.094,82,36.22,14.9,14.9,NULL,NULL,71,-0.780272,1.25586,-0.00485299,9.99,37.6012565,126.8704511,NULL,NULL,4.5,14.03,0,GUIDED,109.652
76,12.094,82,35.89,14.97,14.97,NULL,NULL,71,-0.775344,1.24614,0.0161274,9.99,37.6012969,126.8706054,NULL,NULL,4.5,14.08,0.01,GUIDED,110.664
77,12.094,82,36.22,14.93,14.93,NULL,NULL,72,-0.77702,1.25989,0.00312263,9.99,37.6013267,126.8707214,NULL,NULL,4.44,14.08,0,GUIDED,111.68
78,12.094,82,36.14,14.92,14.92,NULL,NULL,72,-0.77919,1.26175,-0.0119241,9.99,37.6013566,126.8708374,NULL,NULL,4.52,14.07,0,GUIDED,112.692
79,12.094,82,35.81,14.93,14.93,NULL,NULL,71,-0.777072,1.2493,0.011572,9.99,37.601387,126.8709534,NULL,NULL,4.55,14.09,0,GUIDED,113.703
80,12.094,81,35.72,14.91,14.91,NULL,NULL,71,-0.778556,1.24679,0.0163,10,37.6014169,126.8710693,NULL,NULL,4.45,14.1,0,GUIDED,114.765
81,12.094,81,36.06,14.9,14.9,NULL,NULL,72,-0.778438,1.2593,-0.0013014,10,37.6014563,126.8712239,NULL,NULL,4.47,14.11,0,GUIDED,115.829
82,12.094,81,36.06,14.9,14.9,NULL,NULL,72,-0.776654,1.26471,-0.0162816,10,37.6014763,126.8713011,NULL,NULL,4.53,14.09,0,GUIDED,116.848
83,12.094,81,35.97,14.88,14.88,NULL,NULL,71,-0.777907,1.24994,0.0135029,10,37.6015166,126.8714552,NULL,NULL,4.54,14.09,0,GUIDED,117.936
84,12.094,80,36.06,14.89,14.89,NULL,NULL,71,-0.778812,1.25492,0.0065634,10,37.6015465,126.8715709,NULL,NULL,4.47,14.11,0,GUIDED,119.178
85,12.094,80,35.72,14.88,14.88,NULL,NULL,71,-0.778769,1.24728,0.00540961,10,37.6015763,126.8716865,NULL,NULL,4.52,14.1,0,GUIDED,120.188
86,12.094,80,35.81,14.89,14.89,NULL,NULL,71,-0.775761,1.24483,0.0206602,10,37.6016063,126.8718021,NULL,NULL,4.5,14.11,0,GUIDED,121.313
87,12.094,80,35.72,14.86,14.86,NULL,NULL,72,-0.775875,1.25932,-0.00195273,10,37.601636,126.8719177,NULL,NULL,4.46,14.09,0,GUIDED,122.328
88,12.094,79,35.97,14.85,14.85,NULL,NULL,72,-0.781659,1.26279,-0.00647629,10,37.6016657,126.872033,NULL,NULL,4.55,14.06,0,GUIDED,123.464
89,12.094,79,35.97,14.9,14.9,NULL,NULL,71,-0.779625,1.2483,0.0141998,10,37.6016958,126.8721485,NULL,NULL,4.57,14.1,0,GUIDED,124.591
90,12.094,79,35.97,14.91,14.91,NULL,NULL,71,-0.781042,1.25325,0.0124195,10,37.6017257,126.8722642,NULL,NULL,4.5,14.13,-0.01,GUIDED,125.605
91,12.094,79,35.72,14.93,14.93,NULL,NULL,71,-0.777213,1.25186,0.00775476,10,37.6017554,126.8723802,NULL,NULL,4.51,14.12,0,GUIDED,126.616
92,12.094,79,36.06,14.92,14.92,NULL,NULL,71,-0.779529,1.25201,0.00877387,10,37.6017752,126.8724574,NULL,NULL,4.5,14.1,0,GUIDED,127.682
93,12.094,78,36.22,14.95,14.95,NULL,NULL,72,-0.782612,1.26243,-0.00467118,10,37.601805,126.8725733,NULL,NULL,4.52,14.14,0,GUIDED,128.789
94,12.094,78,35.81,14.98,14.98,NULL,NULL,71,-0.780025,1.24229,0.0167156,10,37.6018351,126.8726895,NULL,NULL,4.58,14.14,0,GUIDED,129.916
95,12.094,78,35.97,14.98,14.98,NULL,NULL,72,-0.780242,1.25698,0.00807876,10,37.6018651,126.8728057,NULL,NULL,4.51,14.16,0,GUIDED,131.01
96,12.094,78,36.14,14.96,14.96,NULL,NULL,72,-0.780396,1.26387,-0.00423447,10,37.601895,126.8729219,NULL,NULL,4.53,14.13,0,GUIDED,132.047
97,12.094,78,36.22,14.97,14.97,NULL,NULL,72,-0.781895,1.26483,-0.00723749,10,37.6019253,126.873038,NULL,NULL,4.59,14.13,0,GUIDED,133.057
98,12.094,77,35.81,14.98,14.98,NULL,NULL,71,-0.779649,1.24963,0.0118416,10,37.6019557,126.873154,NULL,NULL,4.58,14.12,0,GUIDED,134.067
99,12.094,77,36.06,14.97,14.97,NULL,NULL,71,-0.780985,1.25338,0.0166914,10,37.6019859,126.8732702,NULL,NULL,4.52,14.15,0,GUIDED,135.097
100,12.094,77,36.14,14.98,14.98,NULL,NULL,72,-0.781049,1.25847,0.00143091,10,37.6020159,126.8733865,NULL,NULL,4.52,14.14,0,GUIDED,136.111
101,12.094,77,36.06,14.97,14.97,NULL,NULL,71,-0.778573,1.25367,0.0114326,10,37.6020461,126.8735025,NULL,NULL,4.54,14.09,0,GUIDED,137.146
102,12.094,76,36.22,14.96,14.96,NULL,NULL,71,-0.78567,1.25258,0.00427812,10,37.6020864,126.873657,NULL,NULL,4.57,14.11,0,GUIDED,138.159
103,12.094,76,35.97,15.02,15.02,NULL,NULL,70,-0.780679,1.23787,0.0345339,9.99,37.6021168,126.8737733,NULL,NULL,4.54,14.19,0,GUIDED,139.197
104,12.094,76,35.89,15.01,15.01,NULL,NULL,71,-0.779212,1.24445,0.0181263,10,37.6021565,126.873929,NULL,NULL,4.45,14.18,0,GUIDED,140.289
105,12.094,76,36.06,14.97,14.97,NULL,NULL,72,-0.779869,1.26034,-0.00315809,10,37.6021862,126.8740455,NULL,NULL,4.51,14.15,0,GUIDED,141.306
106,12.094,75,35.97,14.99,14.99,NULL,NULL,71,-0.783695,1.25145,0.00678157,9.99,37.6022268,126.8742005,NULL,NULL,4.64,14.15,0,GUIDED,142.318
107,12.094,75,35.97,15.02,15.02,NULL,NULL,71,-0.777887,1.25201,0.0240185,9.99,37.6022575,126.874317,NULL,NULL,4.57,14.17,0,GUIDED,143.331
108,12.094,75,36.06,14.95,14.95,NULL,NULL,72,-0.779474,1.25956,0.00371036,10,37.6022976,126.874472,NULL,NULL,4.52,14.12,0,GUIDED,144.344
109,12.094,75,36.22,14.96,14.96,NULL,NULL,71,-0.783996,1.25305,0.01149,9.99,37.6023378,126.8746267,NULL,NULL,4.59,14.14,0,GUIDED,145.364
110,12.094,74,36.06,14.99,14.99,NULL,NULL,71,-0.781661,1.25006,0.0214591,9.99,37.6023783,126.8747817,NULL,NULL,4.54,14.17,0,GUIDED,146.376
111,12.094,74,36.06,15,15,NULL,NULL,72,-0.777717,1.26043,0.00353734,9.99,37.6024184,126.8749371,NULL,NULL,4.54,14.17,0,GUIDED,147.388
112,12.094,74,36.06,14.97,14.97,NULL,NULL,71,-0.779096,1.25293,0.0136008,9.99,37.6024487,126.8750532,NULL,NULL,4.59,14.12,0,GUIDED,148.416
113,12.094,74,36.22,14.97,14.97,NULL,NULL,72,-0.781491,1.26187,0.0070854,9.99,37.6024891,126.8752081,NULL,NULL,4.56,14.14,0,GUIDED,149.499
114,12.094,73,36.22,14.99,14.99,NULL,NULL,71,-0.781034,1.25259,0.0185828,9.99,37.6025194,126.8753244,NULL,NULL,4.58,14.14,0,GUIDED,150.513
115,12.094,73,36.14,15.02,15.02,NULL,NULL,72,-0.780162,1.26343,0.00996993,9.99,37.6025496,126.8754408,NULL,NULL,4.53,14.14,0,GUIDED,151.527
116,12.094,73,36.22,15.01,15.01,NULL,NULL,72,-0.781783,1.25894,0.0122925,9.99,37.6025797,126.875557,NULL,NULL,4.55,14.13,0,GUIDED,152.536
117,12.094,73,36.3,15.05,15.05,NULL,NULL,71,-0.781937,1.24978,0.0181924,9.99,37.6026201,126.8757121,NULL,NULL,4.6,14.18,0,GUIDED,153.546
118,12.094,72,35.89,15.07,15.07,NULL,NULL,71,-0.776814,1.24354,0.0341895,10,37.6026604,126.8758682,NULL,NULL,4.51,14.19,0,GUIDED,154.559
119,12.094,72,36.14,15.01,15.01,NULL,NULL,71,-0.781115,1.25515,0.0185446,10,37.6027001,126.8760238,NULL,NULL,4.47,14.16,0,GUIDED,155.569
120,12.094,72,35.72,14.98,14.98,NULL,NULL,71,-0.780476,1.24827,0.0184229,10,37.6027398,126.8761792,NULL,NULL,4.54,14.09,0,GUIDED,156.583
121,12.094,71,36.06,14.99,14.99,NULL,NULL,71,-0.782916,1.25182,0.024352,10,37.6027799,126.8763344,NULL,NULL,4.54,14.13,0,GUIDED,157.594
122,12.094,71,35.89,15,15,NULL,NULL,71,-0.779526,1.25211,0.019202,10,37.6028199,126.8764898,NULL,NULL,4.54,14.11,0,GUIDED,158.639
123,12.094,71,36.06,14.98,14.98,NULL,NULL,72,-0.784289,1.26154,0.0107446,10,37.6028599,126.876645,NULL,NULL,4.57,14.1,0,GUIDED,159.653
124,12.094,71,36.06,15.03,15.03,NULL,NULL,71,-0.781961,1.25069,0.0256846,9.99,37.6029003,126.8768005,NULL,NULL,4.56,14.15,0,GUIDED,160.663
125,12.094,70,36.06,15.03,15.03,NULL,NULL,71,-0.784912,1.25241,0.0207031,9.99,37.6029404,126.8769561,NULL,NULL,4.55,14.16,0,GUIDED,161.671
126,12.094,70,35.89,15.06,15.06,NULL,NULL,71,-0.779315,1.25584,0.016043,9.99,37.6029809,126.877112,NULL,NULL,4.58,14.18,0.01,GUIDED,162.683
127,12.094,70,35.89,15,15,NULL,NULL,71,-0.78062,1.25266,0.022867,9.99,37.6030214,126.877267,NULL,NULL,4.58,14.11,0,GUIDED,163.706
128,12.094,69,36.14,15,15,NULL,NULL,71,-0.780333,1.25576,0.0206128,9.98,37.6030518,126.8773834,NULL,NULL,4.57,14.12,0,GUIDED,164.718
129,12.094,69,36.14,15.01,15.01,NULL,NULL,72,-0.78359,1.26137,0.0117246,9.98,37.6030821,126.8774998,NULL,NULL,4.59,14.13,0.01,GUIDED,165.8
130,12.094,69,36.22,15.03,15.03,NULL,NULL,71,-0.78114,1.25406,0.0256463,9.98,37.6031126,126.8776164,NULL,NULL,4.59,14.15,0.01,GUIDED,166.853
131,12.094,69,36.06,15.03,15.03,NULL,NULL,71,-0.780898,1.25028,0.0317676,9.98,37.6031527,126.8777721,NULL,NULL,4.5,14.15,0.01,GUIDED,167.866
132,12.094,68,36.22,15.03,15.03,NULL,NULL,72,-0.782384,1.26079,0.0107754,9.98,37.6032026,126.8779668,NULL,NULL,4.58,14.13,0.01,GUIDED,168.881
133,12.094,68,36.22,15,15,NULL,NULL,71,-0.780199,1.25346,0.0272936,9.98,37.6032432,126.878122,NULL,NULL,4.59,14.11,0.01,GUIDED,169.892
134,12.094,68,36.06,15,15,NULL,NULL,72,-0.779308,1.25718,0.0241935,9.98,37.6032833,126.8782772,NULL,NULL,4.52,14.13,0.01,GUIDED,170.909
135,12.094,68,36.22,15,15,NULL,NULL,72,-0.781672,1.26369,0.00627867,9.98,37.6033235,126.8784327,NULL,NULL,4.6,14.15,0.02,GUIDED,171.922
136,12.094,67,36.06,15.03,15.03,NULL,NULL,72,-0.777687,1.258,0.0195895,9.98,37.6033439,126.8785103,NULL,NULL,4.62,14.14,0.01,GUIDED,172.939
137,12.094,67,35.89,15.01,15.01,NULL,NULL,71,-0.776499,1.25328,0.0278503,9.98,37.6033743,126.8786264,NULL,NULL,4.56,14.12,0.01,GUIDED,173.951
138,12.094,67,36.3,14.97,14.97,NULL,NULL,72,-0.781264,1.26381,0.0159452,9.98,37.6034145,126.8787815,NULL,NULL,4.53,14.1,0.01,GUIDED,174.975
139,12.094,67,36.14,15.01,15.01,NULL,NULL,71,-0.780769,1.24308,0.0396452,9.98,37.6034446,126.878898,NULL,NULL,4.54,14.14,0,GUIDED,175.998
140,12.094,66,36.06,15.03,15.03,NULL,NULL,71,-0.777393,1.25587,0.0252385,9.98,37.6034746,126.8790147,NULL,NULL,4.49,14.15,0.01,GUIDED,177.007
141,12.094,66,36.22,14.99,14.99,NULL,NULL,72,-0.778468,1.25748,0.0212511,9.98,37.6035145,126.8791702,NULL,NULL,4.53,14.11,0,GUIDED,178.031
142,12.094,66,36.14,14.99,14.99,NULL,NULL,72,-0.78034,1.25781,0.0175396,9.98,37.6035446,126.8792865,NULL,NULL,4.57,14.08,0,GUIDED,179.044
143,12.094,66,36.22,15.01,15.01,NULL,NULL,71,-0.781211,1.25196,0.0291433,9.99,37.603575,126.8794029,NULL,NULL,4.59,14.11,0,GUIDED,180.058
144,12.094,65,36.22,15.04,15.04,NULL,NULL,71,-0.780011,1.24154,0.0431287,9.99,37.6036052,126.8795194,NULL,NULL,4.51,14.15,0,GUIDED,181.07
145,12.094,65,36.14,15.06,15.06,NULL,NULL,72,-0.77773,1.26039,0.0119935,9.99,37.6036449,126.8796752,NULL,NULL,4.5,14.15,0.01,GUIDED,182.154
146,12.094,65,36.22,15.01,15.01,NULL,NULL,72,-0.781153,1.25975,0.0195587,10,37.6036853,126.8798304,NULL,NULL,4.56,14.08,0,GUIDED,183.164
147,12.094,65,35.89,15,15,NULL,NULL,71,-0.779203,1.24999,0.0248472,10,37.603726,126.8799856,NULL,NULL,4.58,14.09,0,GUIDED,184.176
148,12.094,64,36.3,15.01,15.01,NULL,NULL,71,-0.779195,1.24977,0.0369122,9.99,37.6037563,126.8801021,NULL,NULL,4.5,14.14,0,GUIDED,185.188
149,12.094,64,36.06,15.03,15.03,NULL,NULL,72,-0.778209,1.25807,0.0147372,10,37.6037964,126.8802578,NULL,NULL,4.55,14.14,0,GUIDED,186.197
150,12.094,64,36.14,15.01,15.01,NULL,NULL,71,-0.779938,1.25073,0.0302741,10,37.6038371,126.8804131,NULL,NULL,4.58,14.11,-0.01,GUIDED,187.209
151,12.094,64,35.89,15.01,15.01,NULL,NULL,72,-0.776646,1.25935,0.02345,10,37.6038675,126.8805295,NULL,NULL,4.56,14.11,0,GUIDED,188.219
152,12.094,63,35.97,14.97,14.97,NULL,NULL,71,-0.77812,1.24748,0.0328716,10,37.603908,126.8806844,NULL,NULL,4.55,14.09,-0.01,GUIDED,189.234
153,12.094,63,36.14,14.98,14.98,NULL,NULL,72,-0.778628,1.25828,0.0249452,10,37.603938,126.8808008,NULL,NULL,4.51,14.12,0,GUIDED,190.248
154,12.094,63,36.22,15,15,NULL,NULL,71,-0.778994,1.24892,0.0307128,10.01,37.6039782,126.8809561,NULL,NULL,4.57,14.13,-0.01,GUIDED,191.264
155,12.094,62,36.06,15.01,15.01,NULL,NULL,72,-0.778844,1.25783,0.0213308,10.01,37.6040186,126.8811116,NULL,NULL,4.56,14.13,-0.01,GUIDED,192.28
156,12.094,62,35.81,14.99,14.99,NULL,NULL,71,-0.776952,1.24568,0.0374057,10.01,37.6040588,126.8812667,NULL,NULL,4.52,14.1,-0.01,GUIDED,193.289
157,12.094,62,36.06,14.98,14.98,NULL,NULL,72,-0.78052,1.26191,0.021597,10.02,37.6040987,126.8814219,NULL,NULL,4.51,14.11,-0.01,GUIDED,194.308
158,12.094,62,35.81,14.97,14.97,NULL,NULL,71,-0.778082,1.25646,0.0154503,10.02,37.6041189,126.8814995,NULL,NULL,4.57,14.08,-0.02,GUIDED,195.363
159,12.094,62,35.97,14.95,14.95,NULL,NULL,72,-0.780863,1.25949,0.0271292,10.02,37.6041493,126.8816155,NULL,NULL,4.56,14.06,-0.01,GUIDED,196.582
160,12.094,61,36.06,14.96,14.96,NULL,NULL,72,-0.782591,1.26017,0.0195125,10.01,37.6041796,126.8817315,NULL,NULL,4.57,14.08,-0.02,GUIDED,197.684
161,12.094,61,35.97,14.98,14.98,NULL,NULL,71,-0.782462,1.25263,0.0292533,10.01,37.6042099,126.8818478,NULL,NULL,4.56,14.11,-0.01,GUIDED,198.707
162,12.094,61,35.89,14.99,14.99,NULL,NULL,71,-0.779713,1.25648,0.0272557,10.01,37.6042401,126.881964,NULL,NULL,4.54,14.1,-0.01,GUIDED,199.719
163,12.094,61,36.14,14.99,14.99,NULL,NULL,72,-0.780698,1.26668,0.0173613,10,37.6042703,126.8820804,NULL,NULL,4.56,14.1,-0.01,GUIDED,200.734
164,12.094,60,36.06,15.01,15.01,NULL,NULL,71,-0.782807,1.25116,0.0321317,10,37.6043107,126.8822355,NULL,NULL,4.55,14.13,-0.01,GUIDED,201.753
165,12.094,60,35.89,15.05,15.05,NULL,NULL,71,-0.777121,1.24619,0.0417773,10,37.6043408,126.8823523,NULL,NULL,4.49,14.17,0,GUIDED,202.769
166,12.094,60,35.97,15.04,15.04,NULL,NULL,72,-0.777692,1.2569,0.0268167,10,37.6043606,126.8824301,NULL,NULL,4.47,14.12,0,GUIDED,203.781
167,12.094,60,36.06,15,15,NULL,NULL,72,-0.783361,1.25711,0.0226732,9.99,37.6044006,126.8825852,NULL,NULL,4.57,14.07,0,GUIDED,204.794
168,12.094,59,36.22,15.03,15.03,NULL,NULL,71,-0.783216,1.24935,0.0386573,9.99,37.6044311,126.8827015,NULL,NULL,4.57,14.12,0,GUIDED,205.808
169,12.094,59,36.06,15.06,15.06,NULL,NULL,71,-0.779382,1.2516,0.0333531,9.98,37.6044712,126.8828576,NULL,NULL,4.53,14.14,0.01,GUIDED,206.824
170,12.094,59,36.06,15.04,15.04,NULL,NULL,71,-0.778926,1.24084,0.0436885,9.98,37.6045112,126.8830134,NULL,NULL,4.53,14.11,0,GUIDED,207.839
171,12.094,59,36.3,15.04,15.04,NULL,NULL,72,-0.781085,1.26629,0.0178351,9.98,37.604541,126.8831302,NULL,NULL,4.52,14.11,0.01,GUIDED,208.854
172,12.094,58,35.97,15.05,15.05,NULL,NULL,71,-0.779997,1.25199,0.0245949,9.98,37.6045711,126.883247,NULL,NULL,4.6,14.09,0.01,GUIDED,209.868
173,12.094,58,35.89,15.03,15.03,NULL,NULL,71,-0.779452,1.24473,0.0475673,9.98,37.6046013,126.8833635,NULL,NULL,4.55,14.06,0.02,GUIDED,210.884
174,12.094,58,35.89,15.01,15.01,NULL,NULL,71,-0.779225,1.25147,0.0360084,9.98,37.6046212,126.8834411,NULL,NULL,4.49,14.06,0.01,GUIDED,211.899
175,12.094,58,36.3,15.01,15.01,NULL,NULL,71,-0.78469,1.25385,0.0276634,9.97,37.6046607,126.8835967,NULL,NULL,4.5,14.1,0.01,GUIDED,212.915
176,12.094,58,36.06,15.07,15.07,NULL,NULL,71,-0.781272,1.25205,0.0219484,9.96,37.6046907,126.8837139,NULL,NULL,4.59,14.12,0.02,GUIDED,213.928
177,12.094,57,36.3,15.08,15.08,NULL,NULL,72,-0.778457,1.26523,0.0203611,9.96,37.6047211,126.8838308,NULL,NULL,4.58,14.12,0.03,GUIDED,214.942
178,12.094,57,35.89,15.02,15.02,NULL,NULL,72,-0.778784,1.24811,0.0322538,9.97,37.6047719,126.8840255,NULL,NULL,4.63,14.09,0.02,GUIDED,215.959
179,12.094,57,35.97,15,15,NULL,NULL,71,-0.775688,1.24303,0.0500943,9.97,37.6048021,126.8841424,NULL,NULL,4.51,14.14,0.03,GUIDED,216.974
180,12.094,56,36.06,14.96,14.96,NULL,NULL,71,-0.777456,1.2547,0.017805,9.97,37.6048414,126.8842979,NULL,NULL,4.5,14.09,0.02,GUIDED,217.989
181,12.094,56,36.39,14.95,14.95,NULL,NULL,72,-0.779901,1.26832,0.0052963,9.96,37.6048814,126.8844527,NULL,NULL,4.6,14.09,0.02,GUIDED,219.004
182,12.094,56,36.06,14.98,14.98,NULL,NULL,71,-0.778191,1.25161,0.0287868,9.97,37.6049324,126.8846466,NULL,NULL,4.6,14.1,0.02,GUIDED,220.018
183,12.094,56,36.14,14.97,14.97,NULL,NULL,71,-0.777945,1.2492,0.0329036,9.97,37.6049624,126.8847626,NULL,NULL,4.53,14.11,0.02,GUIDED,221.032
184,12.094,55,36.06,14.93,14.93,NULL,NULL,71,-0.778863,1.2488,0.022976,9.97,37.6050122,126.884956,NULL,NULL,4.53,14.07,0.02,GUIDED,222.048
185,12.094,55,35.89,14.95,14.95,NULL,NULL,71,-0.778205,1.2509,0.0239728,9.97,37.6050522,126.8851107,NULL,NULL,4.54,14.08,0.02,GUIDED,223.061
186,12.094,55,35.97,14.94,14.94,NULL,NULL,72,-0.779551,1.26304,0.00813371,9.97,37.6050822,126.8852267,NULL,NULL,4.57,14.07,0.01,GUIDED,224.077
187,12.094,54,35.89,14.95,14.95,NULL,NULL,71,-0.779945,1.24932,0.0245419,9.98,37.6051227,126.8853813,NULL,NULL,4.58,14.1,0.02,GUIDED,225.092
188,12.094,54,36.22,14.95,14.95,NULL,NULL,72,-0.77781,1.26384,0.00916272,9.98,37.6051628,126.885536,NULL,NULL,4.51,14.12,0.01,GUIDED,226.104
189,12.094,54,36.06,14.94,14.94,NULL,NULL,71,-0.777451,1.25341,0.0173661,9.98,37.6052031,126.8856907,NULL,NULL,4.58,14.11,0,GUIDED,227.12
190,12.094,54,35.89,14.93,14.93,NULL,NULL,71,-0.776659,1.25081,0.0191583,9.98,37.6052335,126.8858067,NULL,NULL,4.56,14.11,0.01,GUIDED,228.133
191,12.094,53,36.14,14.92,14.92,NULL,NULL,72,-0.779562,1.257,0.0173662,9.98,37.6052637,126.8859227,NULL,NULL,4.54,14.14,0,GUIDED,229.146
192,12.094,53,35.97,14.94,14.94,NULL,NULL,71,-0.777349,1.25335,0.0120295,9.99,37.6052938,126.8860387,NULL,NULL,4.56,14.15,0.01,GUIDED,230.157
193,12.094,53,35.81,14.93,14.93,NULL,NULL,71,-0.773317,1.25161,0.0209387,9.99,37.6053341,126.8861932,NULL,NULL,4.55,14.11,0,GUIDED,231.167
194,12.094,53,36.22,14.9,14.9,NULL,NULL,71,-0.778518,1.25278,0.0160326,9.99,37.6053641,126.8863089,NULL,NULL,4.53,14.09,0,GUIDED,232.18
195,12.094,52,36.14,14.94,14.94,NULL,NULL,71,-0.779617,1.24262,0.0255266,10,37.6054042,126.8864631,NULL,NULL,4.55,14.14,0,GUIDED,233.194
196,12.094,52,35.81,14.95,14.95,NULL,NULL,71,-0.776325,1.24779,0.0171539,10,37.6054441,126.8866178,NULL,NULL,4.53,14.11,0,GUIDED,234.204
197,12.094,52,35.81,14.92,14.92,NULL,NULL,71,-0.778209,1.25066,0.0131946,10.01,37.6054839,126.8867725,NULL,NULL,4.55,14.1,0,GUIDED,235.215
198,12.094,52,36.06,14.9,14.9,NULL,NULL,72,-0.78095,1.25792,0.00310551,10.01,37.605524,126.8869266,NULL,NULL,4.59,14.08,-0.01,GUIDED,236.224
199,12.094,51,36.22,14.97,14.97,NULL,NULL,72,-0.780091,1.25868,0.00600158,10.01,37.6055644,126.8870813,NULL,NULL,4.61,14.14,-0.01,GUIDED,237.234
200,12.094,51,36.06,14.99,14.99,NULL,NULL,71,-0.778561,1.25237,0.015541,10.01,37.6055947,126.8871977,NULL,NULL,4.58,14.15,-0.01,GUIDED,238.245
201,12.094,51,36.06,14.97,14.97,NULL,NULL,72,-0.77497,1.26181,-0.00289502,10.02,37.6056347,126.8873529,NULL,NULL,4.56,14.15,-0.02,GUIDED,239.256
202,12.094,50,35.81,14.92,14.92,NULL,NULL,71,-0.777777,1.25623,0.0107116,10.02,37.6056749,126.8875075,NULL,NULL,4.54,14.12,-0.01,GUIDED,240.267
203,12.094,50,35.97,14.92,14.92,NULL,NULL,71,-0.78032,1.25108,0.00933991,10.03,37.605715,126.8876616,NULL,NULL,4.56,14.12,-0.02,GUIDED,241.278
204,12.094,50,36.14,14.94,14.94,NULL,NULL,72,-0.779383,1.2567,0.0101343,10.03,37.6057451,126.8877772,NULL,NULL,4.54,14.13,-0.03,GUIDED,242.29
205,12.094,50,36.06,14.95,14.95,NULL,NULL,72,-0.781071,1.25495,0.00298914,10.03,37.6057852,126.8879319,NULL,NULL,4.59,14.12,-0.02,GUIDED,243.302
206,12.094,50,35.89,14.95,14.95,NULL,NULL,71,-0.780764,1.24589,0.0186137,10.03,37.6058054,126.8880095,NULL,NULL,4.57,14.13,-0.03,GUIDED,244.314
207,12.094,49,36.06,14.97,14.97,NULL,NULL,71,-0.782658,1.25582,0.0103847,10.03,37.6058253,126.8880871,NULL,NULL,4.53,14.16,-0.03,GUIDED,245.325
208,12.094,49,36.22,14.98,14.98,NULL,NULL,72,-0.781469,1.26894,-0.0117196,10.03,37.6058553,126.8882035,NULL,NULL,4.58,14.16,-0.03,GUIDED,246.337
209,12.094,49,35.81,14.98,14.98,NULL,NULL,71,-0.782566,1.24749,0.00866401,10.04,37.6058755,126.8882811,NULL,NULL,4.61,14.13,-0.03,GUIDED,247.349
210,12.094,49,35.81,14.98,14.98,NULL,NULL,71,-0.780247,1.24346,0.0226192,10.03,37.6058956,126.8883587,NULL,NULL,4.56,14.14,-0.03,GUIDED,248.361
211,12.094,49,36.06,14.98,14.98,NULL,NULL,71,-0.779658,1.24898,0.0183047,10.03,37.6059057,126.8883975,NULL,NULL,4.53,14.15,-0.03,GUIDED,249.375
212,12.094,49,35.97,14.97,14.97,NULL,NULL,71,-0.780007,1.25044,0.0122373,10.04,37.6059156,126.8884363,NULL,NULL,4.51,14.15,-0.03,GUIDED,250.39
213,12.094,49,35.97,14.97,14.97,NULL,NULL,71,-0.780548,1.25036,0.00842757,10.04,37.6059255,126.8884751,NULL,NULL,4.5,14.15,-0.03,GUIDED,251.402
214,12.094,49,35.97,14.97,14.97,NULL,NULL,71,-0.780793,1.25301,0.00284847,10.04,37.6059354,126.8885139,NULL,NULL,4.51,14.15,-0.03,GUIDED,252.414
215,12.094,49,35.97,14.97,14.97,NULL,NULL,71,-0.780793,1.25301,0.00284847,10.04,37.6059354,126.8885139,NULL,NULL,4.51,14.15,-0.03,GUIDED,253.427
216,12.094,48,36.06,14.96,14.96,NULL,NULL,72,-0.781045,1.25678,-0.00284109,10.04,37.6059453,126.8885527,NULL,NULL,4.52,14.14,-0.03,GUIDED,254.439
217,12.094,48,36.06,14.96,14.96,NULL,NULL,72,-0.784391,1.26011,-0.00967192,10.04,37.6059755,126.8886691,NULL,NULL,4.59,14.15,-0.03,GUIDED,255.45
218,12.094,48,36.06,14.96,14.96,NULL,NULL,72,-0.784391,1.26011,-0.00967192,10.04,37.6059755,126.8886691,NULL,NULL,4.59,14.15,-0.03,GUIDED,256.46
219,12.094,48,35.97,14.97,14.97,NULL,NULL,72,-0.783239,1.25739,-0.00529113,10.04,37.6059856,126.8887079,NULL,NULL,4.59,14.15,-0.03,GUIDED,257.477
220,12.094,48,35.97,14.97,14.97,NULL,NULL,72,-0.783239,1.25739,-0.00529113,10.04,37.6059856,126.8887079,NULL,NULL,4.59,14.15,-0.03,GUIDED,258.49
221,12.094,48,35.97,14.97,14.97,NULL,NULL,72,-0.783239,1.25739,-0.00529113,10.04,37.6059856,126.8887079,NULL,NULL,4.59,14.15,-0.03,GUIDED,259.502
222,12.094,48,35.97,14.97,14.97,NULL,NULL,72,-0.783239,1.25739,-0.00529113,10.04,37.6059856,126.8887079,NULL,NULL,4.59,14.15,-0.03,GUIDED,260.512
223,12.094,48,35.97,14.97,14.97,NULL,NULL,72,-0.782467,1.25891,-0.00363086,10.04,37.6059957,126.8887467,NULL,NULL,4.6,14.15,-0.03,GUIDED,261.527
224,12.094,48,35.97,14.97,14.97,NULL,NULL,72,-0.782467,1.25891,-0.00363086,10.04,37.6059957,126.8887467,NULL,NULL,4.6,14.15,-0.03,GUIDED,262.538
225,12.094,48,35.89,14.97,14.97,NULL,NULL,72,-0.781776,1.25972,-0.00231278,10.04,37.6060058,126.8887855,NULL,NULL,4.59,14.14,-0.03,GUIDED,263.552
226,12.094,48,35.72,14.93,14.93,NULL,NULL,71,-0.783137,1.24546,0.0103176,10.04,37.6060461,126.8889403,NULL,NULL,4.56,14.12,-0.03,GUIDED,264.566
227,12.094,48,35.81,14.92,14.92,NULL,NULL,71,-0.782871,1.24923,0.0101885,10.03,37.6060761,126.8890559,NULL,NULL,4.5,14.15,-0.03,GUIDED,265.578
228,12.094,47,35.81,14.94,14.94,NULL,NULL,71,-0.783047,1.2504,-0.00417258,10.03,37.606116,126.88921,NULL,NULL,4.57,14.16,-0.03,GUIDED,266.591
229,12.094,47,35.72,14.92,14.92,NULL,NULL,71,-0.785043,1.24915,0.00358054,10.03,37.6061462,126.8893256,NULL,NULL,4.57,14.13,-0.02,GUIDED,267.602
230,12.094,47,35.89,14.92,14.92,NULL,NULL,72,-0.783736,1.25854,-0.0043663,10.02,37.6061862,126.8894797,NULL,NULL,4.56,14.15,-0.02,GUIDED,268.612
231,12.094,46,35.81,14.92,14.92,NULL,NULL,71,-0.784141,1.24693,0.000478318,10.02,37.6062265,126.8896338,NULL,NULL,4.64,14.15,-0.02,GUIDED,269.624
232,12.094,46,35.89,14.91,14.91,NULL,NULL,71,-0.783951,1.2563,0.00207066,10.01,37.6062668,126.889788,NULL,NULL,4.56,14.19,-0.01,GUIDED,270.636
233,12.094,46,35.72,14.9,14.9,NULL,NULL,72,-0.785981,1.25939,-0.0125212,10.01,37.6062965,126.8899036,NULL,NULL,4.56,14.17,-0.01,GUIDED,271.648
234,12.094,46,35.89,14.89,14.89,NULL,NULL,71,-0.784901,1.25135,0.00476288,10,37.6063463,126.8900962,NULL,NULL,4.54,14.18,-0.01,GUIDED,272.661
235,12.094,45,36.06,14.88,14.88,NULL,NULL,72,-0.784705,1.26213,-0.0131062,9.99,37.6063758,126.8902118,NULL,NULL,4.54,14.2,0,GUIDED,273.671
236,12.094,45,35.89,14.89,14.89,NULL,NULL,72,-0.785655,1.26308,-0.0231159,9.99,37.6064055,126.8903274,NULL,NULL,4.62,14.18,0,GUIDED,274.685
237,12.094,45,35.72,14.91,14.91,NULL,NULL,71,-0.784802,1.24863,-0.000382152,9.99,37.6064459,126.8904819,NULL,NULL,4.62,14.21,0.01,GUIDED,275.722
238,12.094,45,35.72,14.88,14.88,NULL,NULL,71,-0.782934,1.25656,-0.00447823,9.98,37.6064757,126.8905983,NULL,NULL,4.54,14.2,0,GUIDED,276.742
239,12.094,44,35.89,14.86,14.86,NULL,NULL,71,-0.786092,1.25244,-0.00746391,9.98,37.6065054,126.890714,NULL,NULL,4.54,14.19,0.01,GUIDED,277.753
240,12.094,44,35.81,14.88,14.88,NULL,NULL,72,-0.780494,1.26133,-0.017075,9.97,37.6065351,126.8908296,NULL,NULL,4.57,14.19,0.02,GUIDED,278.766
241,12.094,44,35.72,14.85,14.85,NULL,NULL,72,-0.781078,1.25756,-0.0188389,9.97,37.6065752,126.8909833,NULL,NULL,4.62,14.16,0.02,GUIDED,279.78
242,12.094,44,35.89,14.84,14.84,NULL,NULL,72,-0.781103,1.25852,-0.0120847,9.96,37.6066154,126.8911367,NULL,NULL,4.57,14.16,0.02,GUIDED,280.791
243,12.094,43,35.72,14.83,14.83,NULL,NULL,71,-0.780811,1.2524,-0.0116042,9.96,37.6066551,126.8912897,NULL,NULL,4.54,14.15,0.03,GUIDED,281.803
244,12.094,43,35.72,14.83,14.83,NULL,NULL,71,-0.780679,1.25397,-0.0126409,9.96,37.6066949,126.8914428,NULL,NULL,4.54,14.15,0.03,GUIDED,282.814
245,12.094,43,35.72,14.8,14.8,NULL,NULL,72,-0.779804,1.2569,-0.0219575,9.96,37.6067347,126.8915959,NULL,NULL,4.57,14.11,0.03,GUIDED,283.824
246,12.094,42,35.97,14.78,14.78,NULL,NULL,72,-0.780802,1.26047,-0.0192058,9.96,37.6067649,126.8917101,NULL,NULL,4.58,14.1,0.03,GUIDED,284.835
247,12.094,42,35.72,14.78,14.78,NULL,NULL,71,-0.780805,1.25024,-0.0128673,9.95,37.6068049,126.8918632,NULL,NULL,4.57,14.1,0.03,GUIDED,285.845
248,12.094,42,35.81,14.79,14.79,NULL,NULL,71,-0.778445,1.25643,-0.0162382,9.95,37.6068446,126.892017,NULL,NULL,4.54,14.14,0.04,GUIDED,286.856
249,12.094,42,35.81,14.77,14.77,NULL,NULL,71,-0.780466,1.24803,-0.0100783,9.96,37.6068939,126.8922083,NULL,NULL,4.51,14.14,0.03,GUIDED,287.869
250,12.094,41,35.89,14.77,14.77,NULL,NULL,72,-0.776514,1.2635,-0.0330935,9.96,37.6069331,126.8923614,NULL,NULL,4.52,14.12,0.03,GUIDED,288.885
251,12.094,41,35.81,14.73,14.73,NULL,NULL,72,-0.778182,1.2591,-0.0319972,9.96,37.6069628,126.8924755,NULL,NULL,4.59,14.08,0.03,GUIDED,289.896
252,12.094,41,35.97,14.74,14.74,NULL,NULL,71,-0.779896,1.25547,-0.0232425,9.96,37.6069928,126.8925897,NULL,NULL,4.61,14.12,0.03,GUIDED,290.908
253,12.094,41,35.89,14.75,14.75,NULL,NULL,71,-0.778294,1.24259,-0.00715319,9.96,37.6070327,126.8927428,NULL,NULL,4.53,14.15,0.02,GUIDED,291.919
254,12.094,40,35.81,14.75,14.75,NULL,NULL,71,-0.779991,1.24208,-0.00865376,9.97,37.6070621,126.8928576,NULL,NULL,4.48,14.16,0.02,GUIDED,292.932
255,12.094,40,35.81,14.76,14.76,NULL,NULL,71,-0.778469,1.25335,-0.0282222,9.97,37.6070913,126.8929724,NULL,NULL,4.5,14.17,0.02,GUIDED,293.945
256,12.094,40,35.89,14.75,14.75,NULL,NULL,71,-0.780334,1.25528,-0.031765,9.97,37.607131,126.8931255,NULL,NULL,4.59,14.14,0.02,GUIDED,294.954
257,12.094,40,35.72,14.75,14.75,NULL,NULL,71,-0.778944,1.25067,-0.0217249,9.98,37.6071611,126.89324,NULL,NULL,4.59,14.14,0.02,GUIDED,295.963
258,12.094,39,35.72,14.74,14.74,NULL,NULL,71,-0.780062,1.25628,-0.0294264,9.98,37.6072008,126.893392,NULL,NULL,4.55,14.13,0.01,GUIDED,296.974
259,12.094,39,35.89,14.77,14.77,NULL,NULL,72,-0.782204,1.26045,-0.0397424,9.98,37.6072408,126.8935442,NULL,NULL,4.62,14.16,0.02,GUIDED,297.987
260,12.094,39,36.06,14.79,14.79,NULL,NULL,72,-0.783912,1.25836,-0.0333197,9.99,37.6072812,126.8936972,NULL,NULL,4.63,14.18,0,GUIDED,299
261,12.094,39,35.72,14.81,14.81,NULL,NULL,71,-0.783007,1.24666,-0.0161188,9.99,37.6073115,126.8938122,NULL,NULL,4.58,14.21,0,GUIDED,300.012
262,12.094,38,36.14,14.84,14.84,NULL,NULL,72,-0.781514,1.27203,-0.0467258,9.99,37.6073513,126.8939659,NULL,NULL,4.56,14.26,0,GUIDED,301.024
263,12.094,38,35.72,14.8,14.8,NULL,NULL,71,-0.78294,1.25142,-0.0276506,10,37.6073914,126.8941185,NULL,NULL,4.63,14.18,0,GUIDED,302.035
264,12.094,38,35.72,14.79,14.79,NULL,NULL,71,-0.782534,1.25057,-0.0179555,10,37.6074314,126.8942721,NULL,NULL,4.54,14.24,0,GUIDED,303.043
265,12.094,37,35.89,14.78,14.78,NULL,NULL,71,-0.782956,1.25311,-0.0287108,10,37.6074608,126.8943869,NULL,NULL,4.53,14.24,0,GUIDED,304.054
266,12.094,37,36.06,14.81,14.81,NULL,NULL,72,-0.782634,1.26609,-0.0448411,10,37.6075002,126.89454,NULL,NULL,4.6,14.25,0,GUIDED,305.066
267,12.094,37,35.81,14.81,14.81,NULL,NULL,71,-0.783934,1.25108,-0.0267569,10,37.6075302,126.8946548,NULL,NULL,4.63,14.24,0,GUIDED,306.079
268,12.094,37,35.72,14.81,14.81,NULL,NULL,71,-0.781163,1.25455,-0.0249769,10,37.6075699,126.8948078,NULL,NULL,4.55,14.26,0,GUIDED,307.093
269,12.094,36,35.97,14.78,14.78,NULL,NULL,72,-0.782599,1.26413,-0.0476194,10,37.6075993,126.8949226,NULL,NULL,4.59,14.24,0,GUIDED,308.104
270,12.094,36,35.72,14.78,14.78,NULL,NULL,71,-0.780865,1.25177,-0.0291286,10,37.6076291,126.8950374,NULL,NULL,4.62,14.23,0,GUIDED,309.115
271,12.094,36,35.72,14.77,14.77,NULL,NULL,71,-0.783507,1.23996,-0.00811007,10,37.6076586,126.8951522,NULL,NULL,4.51,14.25,0,GUIDED,310.128
272,12.094,36,35.89,14.77,14.77,NULL,NULL,71,-0.785245,1.24854,-0.0236779,10,37.6076779,126.8952288,NULL,NULL,4.47,14.27,-0.01,GUIDED,311.137
273,12.094,36,36.06,14.8,14.8,NULL,NULL,71,-0.784357,1.25151,-0.035928,10,37.6076973,126.8953053,NULL,NULL,4.5,14.3,-0.01,GUIDED,312.149
274,12.094,36,36.06,14.82,14.82,NULL,NULL,72,-0.781212,1.2638,-0.0516265,10,37.6077169,126.8953818,NULL,NULL,4.56,14.28,0,GUIDED,313.161
275,12.094,35,35.81,14.83,14.83,NULL,NULL,72,-0.779786,1.26461,-0.0551101,10.01,37.6077368,126.8954584,NULL,NULL,4.63,14.24,0,GUIDED,314.175
276,12.094,35,35.56,14.81,14.81,NULL,NULL,71,-0.781278,1.25478,-0.0442085,10.01,37.6077468,126.8954966,NULL,NULL,4.65,14.22,0,GUIDED,315.185
277,12.094,35,35.47,14.8,14.8,NULL,NULL,71,-0.780511,1.24606,-0.0303227,10.01,37.6077569,126.8955348,NULL,NULL,4.65,14.2,0,GUIDED,316.203
278,12.094,35,35.47,14.8,14.8,NULL,NULL,71,-0.780511,1.24606,-0.0303227,10.01,37.6077569,126.8955348,NULL,NULL,4.65,14.2,0,GUIDED,317.24
279,12.094,35,35.64,14.79,14.79,NULL,NULL,71,-0.781315,1.24923,-0.0275121,10.01,37.607767,126.8955728,NULL,NULL,4.62,14.18,-0.01,GUIDED,318.255
280,12.094,35,35.64,14.79,14.79,NULL,NULL,71,-0.781315,1.24923,-0.0275121,10.01,37.607767,126.8955728,NULL,NULL,4.62,14.18,-0.01,GUIDED,319.268
281,12.094,35,35.64,14.79,14.79,NULL,NULL,71,-0.781315,1.24923,-0.0275121,10.01,37.607767,126.8955728,NULL,NULL,4.62,14.18,-0.01,GUIDED,320.277
282,12.094,35,35.56,14.78,14.78,NULL,NULL,71,-0.782933,1.24732,-0.0237653,10.01,37.607777,126.8956108,NULL,NULL,4.59,14.18,-0.01,GUIDED,321.291
283,12.094,35,35.97,14.77,14.77,NULL,NULL,71,-0.784175,1.25201,-0.0251685,10.01,37.6077869,126.895649,NULL,NULL,4.57,14.2,-0.02,GUIDED,322.312
284,12.094,35,36.06,14.78,14.78,NULL,NULL,72,-0.785487,1.25679,-0.0330396,10.01,37.6077969,126.8956875,NULL,NULL,4.55,14.22,-0.01,GUIDED,323.325
285,12.094,35,35.81,14.79,14.79,NULL,NULL,72,-0.784533,1.25976,-0.0405333,10.01,37.6078168,126.8957644,NULL,NULL,4.56,14.23,0,GUIDED,324.337
286,12.094,35,35.81,14.8,14.8,NULL,NULL,72,-0.783488,1.25995,-0.0481779,10.01,37.6078268,126.8958027,NULL,NULL,4.59,14.2,0,GUIDED,325.348
287,12.094,35,35.81,14.8,14.8,NULL,NULL,72,-0.783488,1.25995,-0.0481779,10.01,37.6078268,126.8958027,NULL,NULL,4.59,14.2,0,GUIDED,326.366
288,12.094,35,35.81,14.8,14.8,NULL,NULL,72,-0.783488,1.25995,-0.0481779,10.01,37.6078268,126.8958027,NULL,NULL,4.59,14.2,0,GUIDED,327.377
289,12.094,35,35.89,14.8,14.8,NULL,NULL,72,-0.78344,1.25976,-0.0465848,10.01,37.6078368,126.8958407,NULL,NULL,4.6,14.2,-0.01,GUIDED,328.386
290,12.094,35,35.89,14.8,14.8,NULL,NULL,72,-0.78344,1.25976,-0.0465848,10.01,37.6078368,126.8958407,NULL,NULL,4.6,14.2,-0.01,GUIDED,329.398
291,12.094,35,35.89,14.8,14.8,NULL,NULL,72,-0.78344,1.25976,-0.0465848,10.01,37.6078368,126.8958407,NULL,NULL,4.6,14.2,-0.01,GUIDED,330.411
292,12.094,34,35.81,14.81,14.81,NULL,NULL,71,-0.783186,1.25129,-0.030093,10.01,37.6078771,126.8959941,NULL,NULL,4.61,14.24,-0.01,GUIDED,331.422
293,12.094,34,35.81,14.8,14.8,NULL,NULL,71,-0.783236,1.25517,-0.0331689,10.01,37.6079072,126.8961089,NULL,NULL,4.57,14.25,-0.01,GUIDED,332.434
294,12.094,34,35.56,14.79,14.79,NULL,NULL,71,-0.782363,1.24865,-0.0307666,10.01,37.6079469,126.896262,NULL,NULL,4.55,14.24,0,GUIDED,333.446
295,12.094,34,35.56,14.76,14.76,NULL,NULL,71,-0.783546,1.24944,-0.034096,10.01,37.6079863,126.8964151,NULL,NULL,4.54,14.23,-0.01,GUIDED,334.456
296,12.094,33,35.64,14.74,14.74,NULL,NULL,71,-0.785848,1.25099,-0.0369365,10.01,37.6080161,126.8965299,NULL,NULL,4.56,14.23,-0.01,GUIDED,335.47
297,12.094,33,35.81,14.72,14.72,NULL,NULL,72,-0.784404,1.26584,-0.0531691,10.01,37.6080559,126.8966829,NULL,NULL,4.62,14.2,-0.01,GUIDED,336.484
298,12.094,33,35.56,14.71,14.71,NULL,NULL,71,-0.78487,1.24784,-0.0259055,10.01,37.6081062,126.8968738,NULL,NULL,4.61,14.23,-0.01,GUIDED,337.496
299,12.094,33,35.72,14.72,14.72,NULL,NULL,71,-0.783651,1.2542,-0.0323748,10.01,37.6081359,126.8969878,NULL,NULL,4.55,14.24,-0.01,GUIDED,338.507
300,12.094,32,35.47,14.7,14.7,NULL,NULL,71,-0.783549,1.24591,-0.0346764,10.01,37.6081653,126.8971018,NULL,NULL,4.57,14.23,0,GUIDED,339.541
301,12.094,32,35.56,14.7,14.7,NULL,NULL,71,-0.786887,1.2423,-0.0245655,10.01,37.608185,126.8971778,NULL,NULL,4.56,14.22,-0.01,GUIDED,340.617
302,12.094,32,35.56,14.71,14.71,NULL,NULL,71,-0.784475,1.25304,-0.0360106,10,37.6082144,126.8972918,NULL,NULL,4.54,14.23,0,GUIDED,341.628
303,12.094,32,35.72,14.7,14.7,NULL,NULL,72,-0.781021,1.2656,-0.0520236,10,37.6082341,126.8973678,NULL,NULL,4.57,14.21,0,GUIDED,342.639
304,12.094,32,35.47,14.67,14.67,NULL,NULL,71,-0.784705,1.25116,-0.0377168,10,37.6082739,126.897519,NULL,NULL,4.63,14.16,0,GUIDED,343.65
305,12.094,31,35.89,14.69,14.69,NULL,NULL,72,-0.783677,1.26256,-0.0394614,10,37.6083038,126.8976332,NULL,NULL,4.59,14.22,0,GUIDED,344.662
306,12.094,31,35.72,14.7,14.7,NULL,NULL,72,-0.783371,1.26118,-0.0497989,10,37.6083335,126.8977476,NULL,NULL,4.61,14.22,0,GUIDED,345.678
307,12.094,31,35.81,14.71,14.71,NULL,NULL,71,-0.783576,1.25184,-0.0269599,10,37.6083732,126.8978996,NULL,NULL,4.58,14.24,0,GUIDED,346.688
308,12.094,31,35.72,14.72,14.72,NULL,NULL,71,-0.785113,1.24806,-0.0341372,10,37.6084124,126.8980516,NULL,NULL,4.56,14.27,0,GUIDED,347.703
309,12.094,30,35.72,14.72,14.72,NULL,NULL,72,-0.780781,1.25973,-0.039723,10,37.6084417,126.8981656,NULL,NULL,4.54,14.26,0,GUIDED,348.714
310,12.094,30,35.81,14.67,14.67,NULL,NULL,72,-0.783761,1.25821,-0.0482676,10,37.6084811,126.8983176,NULL,NULL,4.61,14.21,-0.01,GUIDED,349.723
311,12.094,30,35.72,14.68,14.68,NULL,NULL,71,-0.78366,1.25301,-0.0295366,10,37.6085206,126.8984696,NULL,NULL,4.57,14.23,0,GUIDED,350.733
312,12.094,29,35.72,14.7,14.7,NULL,NULL,72,-0.781551,1.26043,-0.048317,10,37.60856,126.8986216,NULL,NULL,4.59,14.26,0,GUIDED,351.743
313,12.094,29,35.64,14.69,14.69,NULL,NULL,71,-0.783298,1.24695,-0.0259976,10,37.6085995,126.8987736,NULL,NULL,4.57,14.27,0,GUIDED,352.754
314,12.094,29,35.72,14.68,14.68,NULL,NULL,72,-0.781675,1.26542,-0.0526138,10.01,37.6086483,126.8989636,NULL,NULL,4.58,14.23,0,GUIDED,353.766
315,12.094,29,35.47,14.65,14.65,NULL,NULL,71,-0.784144,1.2475,-0.0338605,10.01,37.608678,126.8990771,NULL,NULL,4.6,14.19,0,GUIDED,354.78
316,12.094,28,35.47,14.64,14.64,NULL,NULL,71,-0.784462,1.24039,-0.0159997,10.01,37.6087075,126.8991905,NULL,NULL,4.51,14.22,-0.01,GUIDED,355.79
317,12.094,28,35.72,14.65,14.65,NULL,NULL,72,-0.783194,1.262,-0.0479723,10.01,37.6087367,126.8993045,NULL,NULL,4.5,14.25,-0.01,GUIDED,356.8
318,12.094,28,35.56,14.66,14.66,NULL,NULL,71,-0.781807,1.2554,-0.0488031,10.01,37.6087662,126.8994185,NULL,NULL,4.61,14.22,0,GUIDED,357.811
319,12.094,28,35.56,14.66,14.66,NULL,NULL,71,-0.78297,1.25555,-0.0363743,10.01,37.6087963,126.8995324,NULL,NULL,4.61,14.21,0,GUIDED,358.822
320,12.094,27,35.56,14.65,14.65,NULL,NULL,71,-0.782419,1.25218,-0.0368434,10.01,37.6088361,126.8996844,NULL,NULL,4.6,14.2,-0.01,GUIDED,359.832
321,12.094,27,35.72,14.66,14.66,NULL,NULL,71,-0.785766,1.24827,-0.027821,10.01,37.6088756,126.8998356,NULL,NULL,4.6,14.22,-0.01,GUIDED,360.841
322,12.094,27,35.64,14.7,14.7,NULL,NULL,72,-0.782374,1.26465,-0.0473647,10.01,37.6089152,126.8999876,NULL,NULL,4.59,14.23,0,GUIDED,361.851
323,12.094,27,35.72,14.67,14.67,NULL,NULL,71,-0.784226,1.24985,-0.0222474,10.01,37.6089551,126.9001389,NULL,NULL,4.61,14.2,-0.01,GUIDED,362.862
324,12.094,26,35.72,14.68,14.68,NULL,NULL,72,-0.783912,1.26987,-0.0513133,10.01,37.6089944,126.9002909,NULL,NULL,4.57,14.21,0,GUIDED,363.873
325,12.094,26,35.47,14.68,14.68,NULL,NULL,71,-0.785609,1.24313,-0.0158624,10.01,37.6090337,126.9004422,NULL,NULL,4.59,14.19,0,GUIDED,364.883
326,12.094,26,35.72,14.68,14.68,NULL,NULL,72,-0.784961,1.25956,-0.0370018,10,37.6090725,126.9005949,NULL,NULL,4.51,14.25,-0.01,GUIDED,365.893
327,12.094,25,35.72,14.69,14.69,NULL,NULL,72,-0.782633,1.25857,-0.0411921,10,37.6091118,126.9007469,NULL,NULL,4.6,14.23,0,GUIDED,366.902
328,12.094,25,35.56,14.66,14.66,NULL,NULL,71,-0.782059,1.25291,-0.0290401,10,37.6091513,126.9008989,NULL,NULL,4.58,14.21,0,GUIDED,367.913
329,12.094,25,35.56,14.65,14.65,NULL,NULL,71,-0.784357,1.25013,-0.0272249,10,37.6091806,126.9010129,NULL,NULL,4.55,14.24,0,GUIDED,368.925
330,12.094,25,35.56,14.68,14.68,NULL,NULL,72,-0.782995,1.25728,-0.034329,10,37.6092197,126.9011649,NULL,NULL,4.55,14.26,0,GUIDED,369.935
331,12.094,24,35.64,14.67,14.67,NULL,NULL,72,-0.780188,1.26345,-0.0438831,10,37.6092492,126.9012789,NULL,NULL,4.58,14.22,0,GUIDED,370.958
332,12.094,24,35.47,14.65,14.65,NULL,NULL,71,-0.782443,1.24993,-0.0311539,10,37.6092691,126.9013549,NULL,NULL,4.62,14.21,0,GUIDED,371.97
333,12.094,24,35.56,14.65,14.65,NULL,NULL,71,-0.782091,1.25599,-0.02715,10,37.6092989,126.9014689,NULL,NULL,4.58,14.22,0,GUIDED,373.191
334,12.094,24,35.89,14.66,14.66,NULL,NULL,72,-0.784935,1.26329,-0.0419898,10,37.6093286,126.9015829,NULL,NULL,4.59,14.24,0,GUIDED,374.203
335,12.094,24,35.47,14.66,14.66,NULL,NULL,72,-0.782783,1.2567,-0.0290017,10,37.6093585,126.9016969,NULL,NULL,4.59,14.23,0,GUIDED,375.213
336,12.094,23,35.72,14.64,14.64,NULL,NULL,72,-0.78456,1.26101,-0.0350629,10,37.6093881,126.9018109,NULL,NULL,4.56,14.23,0,GUIDED,376.225
337,12.094,23,35.89,14.67,14.67,NULL,NULL,72,-0.782296,1.25848,-0.0374215,9.99,37.6094276,126.9019629,NULL,NULL,4.61,14.21,0,GUIDED,377.236
338,12.094,23,35.47,14.69,14.69,NULL,NULL,71,-0.784041,1.25195,-0.02494,10,37.6094675,126.9021149,NULL,NULL,4.58,14.21,0,GUIDED,378.246
339,12.094,23,35.47,14.69,14.69,NULL,NULL,71,-0.783462,1.24495,-0.0141896,10,37.6095069,126.9022661,NULL,NULL,4.53,14.21,0,GUIDED,379.255
340,12.094,22,35.72,14.69,14.69,NULL,NULL,71,-0.785936,1.2537,-0.0268409,10,37.609546,126.9024181,NULL,NULL,4.49,14.23,0,GUIDED,380.264
341,12.094,22,35.56,14.73,14.73,NULL,NULL,71,-0.785854,1.25132,-0.0268062,9.99,37.6095854,126.9025701,NULL,NULL,4.55,14.24,0,GUIDED,381.273
342,12.094,22,35.81,14.72,14.72,NULL,NULL,72,-0.781387,1.27055,-0.0467678,10,37.6096253,126.9027219,NULL,NULL,4.6,14.19,0,GUIDED,382.285
343,12.094,21,35.47,14.7,14.7,NULL,NULL,70,-0.783201,1.23423,-0.0036367,10,37.6096555,126.9028351,NULL,NULL,4.59,14.14,0,GUIDED,383.297
344,12.094,21,35.81,14.7,14.7,NULL,NULL,72,-0.785763,1.26398,-0.0341709,9.99,37.6096949,126.9029872,NULL,NULL,4.47,14.22,0,GUIDED,384.307
345,12.094,21,35.81,14.7,14.7,NULL,NULL,71,-0.785122,1.25484,-0.0232761,9.99,37.6097345,126.903139,NULL,NULL,4.56,14.19,0,GUIDED,385.317
346,12.094,21,35.72,14.69,14.69,NULL,NULL,72,-0.781485,1.2599,-0.0335709,9.99,37.6097741,126.9032911,NULL,NULL,4.58,14.18,0,GUIDED,386.327
347,12.094,20,35.47,14.68,14.68,NULL,NULL,70,-0.78493,1.23404,0.00425505,9.99,37.609804,126.9034049,NULL,NULL,4.55,14.18,0,GUIDED,387.336
348,12.094,20,35.89,14.69,14.69,NULL,NULL,72,-0.785589,1.2681,-0.0335272,9.99,37.6098333,126.9035195,NULL,NULL,4.5,14.23,0,GUIDED,388.346
349,12.094,20,35.89,14.69,14.69,NULL,NULL,72,-0.783828,1.26024,-0.0378048,9.99,37.6098628,126.9036336,NULL,NULL,4.61,14.21,0,GUIDED,389.356
350,12.094,20,35.64,14.7,14.7,NULL,NULL,72,-0.783119,1.25796,-0.0205958,9.99,37.6098928,126.9037476,NULL,NULL,4.6,14.21,0.01,GUIDED,390.372
351,12.094,19,35.89,14.68,14.68,NULL,NULL,72,-0.783661,1.26248,-0.0254727,9.99,37.6099325,126.9038996,NULL,NULL,4.57,14.23,0,GUIDED,391.382
352,12.094,19,35.56,14.69,14.69,NULL,NULL,72,-0.780885,1.26096,-0.0237777,9.99,37.609972,126.9040516,NULL,NULL,4.56,14.21,0.01,GUIDED,392.395
353,12.094,19,35.72,14.65,14.65,NULL,NULL,72,-0.784491,1.25746,-0.0200372,9.99,37.6100014,126.9041656,NULL,NULL,4.56,14.21,0,GUIDED,393.405
354,12.094,19,35.89,14.68,14.68,NULL,NULL,71,-0.784348,1.24882,-0.00738492,9.99,37.6100406,126.9043176,NULL,NULL,4.53,14.27,0,GUIDED,394.415
355,12.094,18,35.89,14.68,14.68,NULL,NULL,72,-0.781986,1.26124,-0.0248502,9.99,37.6100798,126.9044696,NULL,NULL,4.53,14.25,0,GUIDED,395.425
356,12.094,18,35.56,14.68,14.68,NULL,NULL,71,-0.779393,1.25298,-0.0133656,10,37.6101091,126.9045836,NULL,NULL,4.56,14.22,0,GUIDED,396.438
357,12.094,18,36.06,14.65,14.65,NULL,NULL,72,-0.78576,1.26298,-0.0197651,10,37.610148,126.9047356,NULL,NULL,4.54,14.24,0,GUIDED,397.45
358,12.094,18,35.64,14.69,14.69,NULL,NULL,72,-0.780714,1.2571,-0.0210265,10,37.6101773,126.9048496,NULL,NULL,4.59,14.24,0,GUIDED,398.461
359,12.094,17,35.56,14.64,14.64,NULL,NULL,71,-0.779831,1.25332,-0.00914443,10.01,37.6102165,126.9050016,NULL,NULL,4.58,14.21,-0.01,GUIDED,399.47
360,12.094,17,35.89,14.65,14.65,NULL,NULL,71,-0.781847,1.25661,-0.0132035,10,37.6102554,126.9051534,NULL,NULL,4.54,14.24,-0.01,GUIDED,400.481
361,12.094,17,35.89,14.68,14.68,NULL,NULL,71,-0.782943,1.25198,-0.0137969,10,37.6102846,126.9052674,NULL,NULL,4.57,14.26,-0.01,GUIDED,401.492
362,12.094,17,35.72,14.7,14.7,NULL,NULL,71,-0.780925,1.25633,-0.0114316,10.01,37.6103238,126.9054194,NULL,NULL,4.58,14.24,-0.01,GUIDED,402.504
363,12.094,16,35.56,14.68,14.68,NULL,NULL,72,-0.782751,1.26033,-0.0237001,10.02,37.6103531,126.9055333,NULL,NULL,4.59,14.2,-0.01,GUIDED,403.517
364,12.094,16,35.56,14.66,14.66,NULL,NULL,71,-0.781008,1.25167,-0.0113083,10.02,37.6103727,126.9056089,NULL,NULL,4.6,14.19,-0.01,GUIDED,404.552
365,12.094,16,35.56,14.66,14.66,NULL,NULL,71,-0.783412,1.24296,0.00317561,10.02,37.6104022,126.905723,NULL,NULL,4.55,14.22,-0.02,GUIDED,405.565
366,12.094,16,35.72,14.67,14.67,NULL,NULL,72,-0.782186,1.25842,-0.0142528,10.02,37.6104315,126.9058374,NULL,NULL,4.5,14.24,-0.01,GUIDED,406.576
367,12.094,15,35.81,14.67,14.67,NULL,NULL,72,-0.786061,1.25761,-0.0212342,10.02,37.6104708,126.905989,NULL,NULL,4.62,14.2,-0.02,GUIDED,407.587
368,12.094,15,35.81,14.7,14.7,NULL,NULL,71,-0.782522,1.24874,0.000831072,10.02,37.6105007,126.9061035,NULL,NULL,4.6,14.21,-0.02,GUIDED,408.599
369,12.094,15,35.89,14.72,14.72,NULL,NULL,72,-0.786115,1.26204,-0.022331,10.02,37.6105402,126.9062555,NULL,NULL,4.58,14.24,-0.01,GUIDED,409.609
370,12.094,15,35.72,14.72,14.72,NULL,NULL,71,-0.78401,1.25056,-0.00784502,10.02,37.6105803,126.9064075,NULL,NULL,4.61,14.21,-0.02,GUIDED,410.619
371,12.094,14,35.72,14.71,14.71,NULL,NULL,72,-0.783722,1.25711,-0.00694247,10.02,37.6106203,126.9065595,NULL,NULL,4.55,14.22,-0.01,GUIDED,411.63
372,12.094,14,35.72,14.72,14.72,NULL,NULL,72,-0.785441,1.26289,-0.022246,10.01,37.6106501,126.9066735,NULL,NULL,4.59,14.2,-0.01,GUIDED,412.643
373,12.094,14,35.89,14.75,14.75,NULL,NULL,72,-0.786479,1.26144,-0.00739958,10.01,37.6106901,126.9068257,NULL,NULL,4.58,14.22,-0.01,GUIDED,413.652
374,12.094,14,35.64,14.75,14.75,NULL,NULL,71,-0.784512,1.24967,0.0010559,10.01,37.6107301,126.9069781,NULL,NULL,4.56,14.19,-0.01,GUIDED,414.663
375,12.094,13,35.81,14.73,14.73,NULL,NULL,71,-0.785373,1.2555,-0.00552931,10.01,37.6107694,126.9071303,NULL,NULL,4.52,14.21,-0.01,GUIDED,415.674
376,12.094,13,35.47,14.75,14.75,NULL,NULL,71,-0.784956,1.24413,0.00278921,10.01,37.6107988,126.9072448,NULL,NULL,4.54,14.19,0,GUIDED,416.686
377,12.094,13,35.72,14.75,14.75,NULL,NULL,71,-0.7846,1.24603,0.00636635,10,37.6108384,126.907397,NULL,NULL,4.51,14.21,0,GUIDED,417.699
378,12.094,13,35.81,14.76,14.76,NULL,NULL,72,-0.783436,1.25732,-0.00701488,10,37.6108675,126.9075118,NULL,NULL,4.5,14.22,0,GUIDED,418.736
379,12.094,12,35.72,14.77,14.77,NULL,NULL,70,-0.787034,1.23578,0.014078,10,37.6109071,126.9076648,NULL,NULL,4.59,14.22,0,GUIDED,419.87
380,12.094,12,35.64,14.79,14.79,NULL,NULL,71,-0.780872,1.25424,0.00192242,10,37.6109367,126.9077797,NULL,NULL,4.51,14.24,0,GUIDED,420.88
381,12.094,12,35.64,14.73,14.73,NULL,NULL,71,-0.783801,1.25207,-0.00395267,10,37.6109859,126.9079705,NULL,NULL,4.61,14.19,0,GUIDED,422.435
382,12.094,11,36.06,14.74,14.74,NULL,NULL,72,-0.785923,1.26506,-0.0098665,9.99,37.6110257,126.9081231,NULL,NULL,4.6,14.25,0,GUIDED,423.449
383,12.094,11,35.64,14.76,14.76,NULL,NULL,71,-0.782853,1.25101,-0.00236035,9.99,37.6110653,126.9082761,NULL,NULL,4.6,14.25,0,GUIDED,424.464
384,12.094,11,35.64,14.74,14.74,NULL,NULL,72,-0.780563,1.26124,-0.00752193,10,37.611095,126.9083909,NULL,NULL,4.54,14.23,0,GUIDED,425.478
385,12.094,11,35.97,14.71,14.71,NULL,NULL,71,-0.786133,1.26065,-0.00954112,9.99,37.6111346,126.9085435,NULL,NULL,4.57,14.2,0,GUIDED,426.493
386,12.094,10,35.89,14.75,14.75,NULL,NULL,72,-0.786565,1.25776,-0.00727777,9.99,37.6111646,126.9086572,NULL,NULL,4.58,14.19,0,GUIDED,427.51
387,12.094,10,35.97,14.78,14.78,NULL,NULL,72,-0.784573,1.25844,0.0030176,9.99,37.6112044,126.9088099,NULL,NULL,4.52,14.23,0,GUIDED,428.526
388,12.094,10,35.56,14.79,14.79,NULL,NULL,71,-0.782905,1.25375,-0.00596714,9.99,37.6112441,126.908963,NULL,NULL,4.58,14.22,0,GUIDED,429.538
389,12.094,10,35.64,14.76,14.76,NULL,NULL,71,-0.786028,1.25186,0.00666261,9.99,37.6112841,126.9091161,NULL,NULL,4.57,14.22,0,GUIDED,430.55
390,12.094,9,35.81,14.76,14.76,NULL,NULL,72,-0.784139,1.25907,-0.00328509,9.99,37.6113139,126.9092309,NULL,NULL,4.54,14.23,0,GUIDED,431.568
391,12.094,9,35.89,14.75,14.75,NULL,NULL,72,-0.784841,1.26146,-0.00928126,9.99,37.6113536,126.9093833,NULL,NULL,4.59,14.17,0,GUIDED,432.584
392,12.094,9,35.56,14.76,14.76,NULL,NULL,71,-0.783108,1.24513,0.0132855,9.99,37.6113936,126.9095353,NULL,NULL,4.57,14.18,0,GUIDED,433.598
393,12.094,9,35.56,14.76,14.76,NULL,NULL,71,-0.784703,1.24995,0.0166238,9.98,37.611423,126.9096496,NULL,NULL,4.49,14.21,0.01,GUIDED,434.611
394,12.094,8,36.06,14.77,14.77,NULL,NULL,72,-0.787039,1.26489,-0.0145922,9.98,37.6114523,126.909765,NULL,NULL,4.52,14.23,0,GUIDED,435.626
395,12.094,8,35.64,14.81,14.81,NULL,NULL,71,-0.780661,1.26019,-0.00104625,9.98,37.6114919,126.909918,NULL,NULL,4.57,14.21,0.02,GUIDED,436.64
396,12.094,8,35.72,14.77,14.77,NULL,NULL,72,-0.78365,1.26425,-0.0108761,9.98,37.6115217,126.9100327,NULL,NULL,4.58,14.19,0.01,GUIDED,437.661
397,12.094,8,35.47,14.77,14.77,NULL,NULL,70,-0.783662,1.23666,0.0292166,9.98,37.6115514,126.9101475,NULL,NULL,4.55,14.19,0.01,GUIDED,438.674
398,12.094,7,35.72,14.77,14.77,NULL,NULL,71,-0.783497,1.25544,0.00539127,9.98,37.6115901,126.9103005,NULL,NULL,4.47,14.24,0.01,GUIDED,439.691
399,12.094,7,35.72,14.76,14.76,NULL,NULL,71,-0.784785,1.25571,-0.0062251,9.98,37.6116195,126.9104153,NULL,NULL,4.55,14.18,0.01,GUIDED,440.706
400,12.094,7,35.72,14.78,14.78,NULL,NULL,71,-0.782057,1.24193,0.0160753,9.97,37.6116594,126.9105684,NULL,NULL,4.56,14.22,0.01,GUIDED,441.72
401,12.094,7,35.56,14.77,14.77,NULL,NULL,71,-0.781959,1.24338,0.0118622,9.98,37.6116984,126.9107215,NULL,NULL,4.48,14.23,0.02,GUIDED,442.732
402,12.094,6,35.81,14.75,14.75,NULL,NULL,71,-0.782186,1.25601,-0.00990439,9.97,37.6117376,126.9108745,NULL,NULL,4.54,14.2,0.01,GUIDED,443.745
403,12.094,6,35.97,14.74,14.74,NULL,NULL,71,-0.783258,1.2546,0.000529667,9.97,37.6117775,126.9110276,NULL,NULL,4.58,14.18,0.01,GUIDED,444.756
404,12.094,6,35.56,14.75,14.75,NULL,NULL,71,-0.780993,1.25466,0.000783816,9.98,37.6118075,126.9111424,NULL,NULL,4.56,14.18,0.02,GUIDED,445.769
405,12.094,5,36.14,14.75,14.75,NULL,NULL,72,-0.783174,1.26425,-0.0110558,9.97,37.6118474,126.9112954,NULL,NULL,4.59,14.19,0.01,GUIDED,446.782
406,12.094,5,35.72,14.78,14.78,NULL,NULL,71,-0.783388,1.24766,0.00511883,9.98,37.6118874,126.9114485,NULL,NULL,4.6,14.2,0.01,GUIDED,447.794
407,12.094,5,35.81,14.79,14.79,NULL,NULL,72,-0.779477,1.26338,-0.00350339,9.98,37.6119272,126.9116016,NULL,NULL,4.54,14.2,0.01,GUIDED,448.808
408,12.094,5,35.97,14.76,14.76,NULL,NULL,72,-0.785272,1.25676,-0.00495083,9.98,37.611957,126.9117164,NULL,NULL,4.58,14.19,0.01,GUIDED,449.82
409,12.094,4,35.72,14.78,14.78,NULL,NULL,71,-0.779093,1.24765,0.0100246,9.98,37.611997,126.9118694,NULL,NULL,4.57,14.21,0.01,GUIDED,450.836
410,12.094,4,35.72,14.76,14.76,NULL,NULL,71,-0.782222,1.24934,0.011486,9.98,37.6120268,126.9119842,NULL,NULL,4.51,14.21,0,GUIDED,451.849
411,12.094,4,35.97,14.76,14.76,NULL,NULL,71,-0.784308,1.2517,0.0009924,9.98,37.6120561,126.912099,NULL,NULL,4.5,14.22,0,GUIDED,452.918
412,12.094,4,35.81,14.8,14.8,NULL,NULL,71,-0.78026,1.25459,-0.0025941,9.98,37.6120858,126.9122138,NULL,NULL,4.54,14.23,0.01,GUIDED,453.939
413,12.094,3,35.81,14.79,14.79,NULL,NULL,72,-0.782636,1.2595,-0.00804996,9.99,37.6121155,126.9123286,NULL,NULL,4.55,14.18,0.01,GUIDED,454.952
414,12.094,3,36.06,14.83,14.83,NULL,NULL,71,-0.786422,1.25247,0.00137952,9.99,37.6121554,126.9124817,NULL,NULL,4.59,14.22,0,GUIDED,455.966
415,12.094,3,35.97,14.84,14.84,NULL,NULL,72,-0.7808,1.26926,-0.0134554,9.99,37.6121954,126.9126348,NULL,NULL,4.57,14.21,0,GUIDED,456.979
416,12.094,3,36.06,14.81,14.81,NULL,NULL,71,-0.784385,1.25167,0.00209886,9.99,37.6122355,126.9127878,NULL,NULL,4.61,14.19,0,GUIDED,457.992
417,12.094,2,35.72,14.84,14.84,NULL,NULL,71,-0.782965,1.2553,0.00320327,10,37.6122754,126.9129409,NULL,NULL,4.53,14.23,0,GUIDED,459.005
418,12.094,2,35.72,14.83,14.83,NULL,NULL,70,-0.783406,1.23843,0.0169987,10,37.612305,126.9130557,NULL,NULL,4.52,14.26,0,GUIDED,460.017
419,12.094,2,35.81,14.83,14.83,NULL,NULL,71,-0.780595,1.25273,-0.000699339,10,37.612344,126.9132088,NULL,NULL,4.48,14.27,0,GUIDED,461.028
420,12.094,2,35.81,14.8,14.8,NULL,NULL,71,-0.783045,1.25496,-0.0111012,10,37.6123834,126.9133618,NULL,NULL,4.56,14.22,0,GUIDED,462.041
421,12.094,1,35.72,14.79,14.79,NULL,NULL,71,-0.784307,1.24989,0.000542324,10,37.6124134,126.9134766,NULL,NULL,4.58,14.2,0,GUIDED,463.054
422,12.094,1,35.97,14.82,14.82,NULL,NULL,72,-0.784947,1.26295,-0.0132269,10,37.6124531,126.9136297,NULL,NULL,4.56,14.24,0,GUIDED,464.066
423,12.094,1,35.72,14.81,14.81,NULL,NULL,72,-0.783665,1.25902,-0.0106104,10,37.6124931,126.9137828,NULL,NULL,4.6,14.2,0,GUIDED,465.078
