id,voltage,battery_remaining,current_drawn,ground_speed,air_speed,nav_roll,nav_pitch,nav_bearing,pitch,yaw,roll,alt,lat,lon,payload,distance_frm_home,velocity_x,velocity_y,velocity_z,mode,flight_time
2,12.242,98,23.92,0.14,0.14,NULL,NULL,2,-0.00743515,0.044002,0.0686753,9.77,37.5994482,126.863501,NULL,NULL,-0.13,0.22,0.12,GUIDED,34.9565
3,12.242,98,25.42,0.6,0.6,NULL,NULL,29,-0.0981061,0.520263,0.123798,9.86,37.5994483,126.8635046,NULL,NULL,0.01,0.86,0.09,GUIDED,35.9765
4,12.242,97,25.25,1.01,1.01,NULL,NULL,49,-0.131678,0.856572,0.068679,9.91,37.5994489,126.8635101,NULL,NULL,0.12,1.23,0.07,GUIDED,37.0195
5,12.193,97,28.25,1.56,1.56,NULL,NULL,74,-0.187371,1.30044,-0.0231373,9.96,37.5994509,126.8635218,NULL,NULL,0.39,1.64,0.02,GUIDED,38.0515
6,12.193,97,26.42,1.84,1.84,NULL,NULL,74,-0.218752,1.29307,-0.0326586,9.98,37.5994533,126.8635316,NULL,NULL,0.65,1.96,0,GUIDED,39.0704
7,12.242,97,25.67,2.5,2.5,NULL,NULL,71,-0.242309,1.23939,0.0149144,9.99,37.5994585,126.86355,NULL,NULL,0.88,2.48,0,GUIDED,40.0884
8,12.242,97,26.17,2.78,2.78,NULL,NULL,72,-0.241092,1.25751,0.0128255,9.99,37.5994624,126.8635646,NULL,NULL,0.93,2.76,0,GUIDED,41.1074
9,12.242,97,26.25,3.18,3.18,NULL,NULL,72,-0.253988,1.26266,0.00314983,9.99,37.5994687,126.8635889,NULL,NULL,1.03,3.06,0,GUIDED,42.1274
10,12.242,97,26.25,3.44,3.44,NULL,NULL,72,-0.272385,1.25758,0.00401516,9.99,37.5994754,126.8636156,NULL,NULL,1.14,3.32,0,GUIDED,43.1483
11,12.242,96,26.25,3.77,3.77,NULL,NULL,71,-0.287813,1.24905,0.0108613,9.99,37.5994852,126.8636547,NULL,NULL,1.25,3.66,0,GUIDED,44.1723
12,12.193,96,26.5,4.09,4.09,NULL,NULL,71,-0.297637,1.25351,0.0102197,9.99,37.5994904,126.8636758,NULL,NULL,1.3,3.83,0,GUIDED,45.2203
13,12.193,96,26.58,4.29,4.29,NULL,NULL,72,-0.305694,1.2567,0.00583664,9.98,37.5994985,126.863709,NULL,NULL,1.37,4.02,0.01,GUIDED,46.2443
14,12.193,96,26.58,4.46,4.46,NULL,NULL,71,-0.308489,1.25468,0.0066175,9.98,37.5995042,126.863732,NULL,NULL,1.42,4.12,0,GUIDED,47.2713
15,12.193,96,26.75,4.6,4.6,NULL,NULL,72,-0.314108,1.25737,0.00267245,9.97,37.599513,126.8637676,NULL,NULL,1.49,4.27,0.01,GUIDED,48.2933
16,12.193,96,26.75,4.72,4.72,NULL,NULL,71,-0.313106,1.25305,0.00483612,9.97,37.5995191,126.863792,NULL,NULL,1.52,4.34,0.01,GUIDED,49.3143
17,12.193,96,26.92,4.78,4.78,NULL,NULL,71,-0.313545,1.25534,0.0062603,9.97,37.5995285,126.8638292,NULL,NULL,1.54,4.4,0.02,GUIDED,50.3442
18,12.193,96,26.92,4.82,4.82,NULL,NULL,72,-0.315906,1.25909,0.00598707,9.97,37.5995316,126.8638417,NULL,NULL,1.55,4.41,0.02,GUIDED,51.3832
19,12.193,95,26.83,4.9,4.9,NULL,NULL,71,-0.314787,1.25171,0.0059194,9.97,37.5995412,126.8638796,NULL,NULL,1.56,4.47,0.02,GUIDED,52.4863
20,12.193,95,26.83,4.92,4.92,NULL,NULL,71,-0.316128,1.25107,0.00445365,9.97,37.5995476,126.8639051,NULL,NULL,1.56,4.49,0.02,GUIDED,53.5053
21,12.193,95,27,4.98,4.98,NULL,NULL,71,-0.320977,1.2525,0.00105043,9.97,37.5995574,126.8639436,NULL,NULL,1.59,4.54,0.02,GUIDED,54.5273
22,12.193,95,27,5,5,NULL,NULL,72,-0.320774,1.26048,-8.74E-05,9.97,37.5995642,126.8639695,NULL,NULL,1.6,4.56,0.02,GUIDED,55.5492
23,12.193,95,26.92,5.04,5.04,NULL,NULL,71,-0.317977,1.25376,0.00296342,9.97,37.5995744,126.8640086,NULL,NULL,1.61,4.59,0.02,GUIDED,56.5732
24,12.193,95,27,5.04,5.04,NULL,NULL,72,-0.316386,1.25802,-0.00132645,9.97,37.5995847,126.8640477,NULL,NULL,1.6,4.6,0.02,GUIDED,57.5972
25,12.193,95,27,5.04,5.04,NULL,NULL,71,-0.317737,1.25558,-0.000563965,9.96,37.5995952,126.8640867,NULL,NULL,1.6,4.58,0.02,GUIDED,58.6202
26,12.193,94,27.17,5.05,5.05,NULL,NULL,71,-0.32193,1.25653,0.000568618,9.97,37.5996059,126.8641256,NULL,NULL,1.58,4.6,0.02,GUIDED,59.6422
27,12.193,94,27,5.07,5.07,NULL,NULL,71,-0.320499,1.25144,0.00312339,9.97,37.5996165,126.8641647,NULL,NULL,1.56,4.62,0.02,GUIDED,60.6601
28,12.193,94,26.92,5.08,5.08,NULL,NULL,71,-0.317792,1.25489,0.00200771,9.97,37.5996272,126.8642039,NULL,NULL,1.54,4.63,0.02,GUIDED,61.6801
29,12.193,94,27.08,5.06,5.06,NULL,NULL,72,-0.317521,1.2601,-0.00280184,9.97,37.5996379,126.864243,NULL,NULL,1.52,4.62,0.02,GUIDED,62.7021
30,12.193,94,26.83,5.05,5.05,NULL,NULL,71,-0.318693,1.25036,0.00493878,9.97,37.5996524,126.8642948,NULL,NULL,1.51,4.61,0.02,GUIDED,63.7231
31,12.193,93,26.92,5.04,5.04,NULL,NULL,71,-0.317937,1.25117,0.00629703,9.97,37.5996596,126.8643207,NULL,NULL,1.48,4.62,0.02,GUIDED,64.747
32,12.193,93,26.92,5.03,5.03,NULL,NULL,72,-0.317078,1.25827,0.00419986,9.97,37.5996704,126.8643596,NULL,NULL,1.46,4.64,0.01,GUIDED,65.764
33,12.193,93,26.75,5.03,5.03,NULL,NULL,71,-0.3141,1.25216,0.00546283,9.97,37.599681,126.8643985,NULL,NULL,1.44,4.64,0.02,GUIDED,66.782
34,12.193,93,26.92,5.02,5.02,NULL,NULL,71,-0.312967,1.25269,0.00634592,9.97,37.5996881,126.8644244,NULL,NULL,1.42,4.64,0.01,GUIDED,67.803
35,12.193,93,27.08,5,5,NULL,NULL,71,-0.314048,1.25472,0.00957286,9.97,37.5996987,126.8644632,NULL,NULL,1.4,4.64,0.01,GUIDED,68.8169
36,12.193,93,26.75,4.99,4.99,NULL,NULL,71,-0.31624,1.25025,0.00933834,9.98,37.5997091,126.8645019,NULL,NULL,1.38,4.65,0.01,GUIDED,69.8309
37,12.193,93,26.83,5,5,NULL,NULL,71,-0.313552,1.25103,0.0100157,9.98,37.599716,126.8645277,NULL,NULL,1.37,4.65,0.01,GUIDED,70.8469
38,12.193,93,27,4.98,4.98,NULL,NULL,72,-0.315321,1.25874,0.00300227,9.98,37.5997263,126.8645664,NULL,NULL,1.36,4.65,0,GUIDED,71.8849
39,12.193,92,27.17,4.99,4.99,NULL,NULL,72,-0.316164,1.25719,0.00433227,9.98,37.5997332,126.8645921,NULL,NULL,1.38,4.65,0.01,GUIDED,72.9189
40,12.193,92,26.67,4.99,4.99,NULL,NULL,71,-0.314776,1.2452,0.0167131,9.99,37.5997435,126.8646308,NULL,NULL,1.36,4.65,0.01,GUIDED,73.9298
41,12.193,92,26.92,4.98,4.98,NULL,NULL,72,-0.312261,1.25903,0.00806178,9.99,37.5997535,126.8646695,NULL,NULL,1.32,4.64,0,GUIDED,74.9418
42,12.193,92,27,4.96,4.96,NULL,NULL,72,-0.315315,1.2601,0.0040075,9.99,37.5997636,126.8647081,NULL,NULL,1.34,4.64,0,GUIDED,75.9528
43,12.193,92,26.75,4.97,4.97,NULL,NULL,71,-0.317233,1.24753,0.012488,9.99,37.5997736,126.8647467,NULL,NULL,1.34,4.65,0,GUIDED,76.9628
44,12.193,92,27,4.98,4.98,NULL,NULL,71,-0.315436,1.25654,0.00991778,9.99,37.5997836,126.8647854,NULL,NULL,1.32,4.67,0,GUIDED,77.9757
45,12.193,91,26.75,4.98,4.98,NULL,NULL,71,-0.314638,1.25288,0.00526828,10,37.5997935,126.8648242,NULL,NULL,1.32,4.66,0,GUIDED,78.9897
46,12.193,91,26.83,4.98,4.98,NULL,NULL,71,-0.314782,1.25445,0.00621011,10,37.5998035,126.8648628,NULL,NULL,1.34,4.64,0,GUIDED,80.0057
47,12.193,91,27,4.98,4.98,NULL,NULL,72,-0.316957,1.26064,0.00692281,10,37.5998101,126.8648886,NULL,NULL,1.33,4.66,0,GUIDED,81.0196
48,12.193,91,26.92,4.99,4.99,NULL,NULL,71,-0.314972,1.25547,0.00470594,10,37.5998201,126.8649273,NULL,NULL,1.32,4.67,0,GUIDED,82.0476
49,12.193,91,26.92,4.98,4.98,NULL,NULL,72,-0.315087,1.25677,0.0054344,10,37.5998301,126.8649661,NULL,NULL,1.32,4.66,0,GUIDED,83.0616
50,12.193,91,26.92,4.98,4.98,NULL,NULL,71,-0.316598,1.25405,0.00446034,10,37.5998368,126.8649918,NULL,NULL,1.33,4.66,0,GUIDED,84.0746
51,12.193,91,26.75,4.98,4.98,NULL,NULL,71,-0.317357,1.25097,0.00568588,10,37.5998435,126.8650176,NULL,NULL,1.33,4.67,0,GUIDED,85.0925
52,12.193,90,27,4.99,4.99,NULL,NULL,71,-0.317108,1.25611,0.00615374,10,37.5998502,126.8650435,NULL,NULL,1.33,4.68,0,GUIDED,86.1275
53,12.193,90,26.92,4.99,4.99,NULL,NULL,71,-0.315981,1.24931,0.00924056,10,37.5998569,126.8650694,NULL,NULL,1.34,4.68,0,GUIDED,87.2266
54,12.193,90,26.83,5,5,NULL,NULL,71,-0.315046,1.25191,0.00774766,10,37.5998637,126.8650952,NULL,NULL,1.34,4.66,0,GUIDED,88.4878
55,12.193,90,26.92,5,5,NULL,NULL,72,-0.318075,1.25694,0.00529694,10,37.5998703,126.865121,NULL,NULL,1.33,4.65,0,GUIDED,89.708
56,12.193,90,27,5,5,NULL,NULL,72,-0.317993,1.25702,0.00374707,10,37.599877,126.8651468,NULL,NULL,1.34,4.65,-0.01,GUIDED,90.729
57,12.193,90,27,5.02,5.02,NULL,NULL,71,-0.318824,1.2522,0.00747,10,37.5998871,126.8651856,NULL,NULL,1.35,4.67,0,GUIDED,91.7419
58,12.193,90,26.83,5.02,5.02,NULL,NULL,71,-0.313785,1.25179,0.00842978,10.01,37.5998972,126.8652246,NULL,NULL,1.34,4.67,0,GUIDED,92.7569
59,12.193,90,27,5,5,NULL,NULL,72,-0.315587,1.25899,0.00412929,10.01,37.5999071,126.8652636,NULL,NULL,1.33,4.66,-0.01,GUIDED,93.7749
60,12.193,89,26.92,5,5,NULL,NULL,71,-0.317134,1.2565,0.00216511,10.01,37.5999171,126.8653025,NULL,NULL,1.36,4.67,-0.01,GUIDED,94.7878
61,12.193,89,26.83,5,5,NULL,NULL,71,-0.31484,1.25135,0.010189,10.01,37.5999272,126.8653414,NULL,NULL,1.35,4.67,-0.01,GUIDED,95.8038
62,12.193,89,26.75,4.99,4.99,NULL,NULL,71,-0.316467,1.25048,0.00790553,10.01,37.5999338,126.8653673,NULL,NULL,1.33,4.66,-0.01,GUIDED,96.8158
63,12.193,89,26.92,4.99,4.99,NULL,NULL,71,-0.316799,1.25645,0.00216234,10.01,37.5999436,126.8654062,NULL,NULL,1.34,4.67,-0.02,GUIDED,97.8498
64,12.193,89,26.92,4.99,4.99,NULL,NULL,72,-0.314362,1.26014,-0.000560848,10.01,37.5999503,126.8654321,NULL,NULL,1.35,4.66,-0.01,GUIDED,98.8688
65,12.193,89,26.75,4.97,4.97,NULL,NULL,71,-0.31504,1.25558,0.000498143,10.02,37.5999603,126.8654708,NULL,NULL,1.38,4.65,-0.01,GUIDED,99.8914
66,12.193,89,26.92,4.97,4.97,NULL,NULL,71,-0.315972,1.25282,0.00658484,10.01,37.5999704,126.8655094,NULL,NULL,1.36,4.66,-0.02,GUIDED,100.947
67,12.193,88,26.92,4.97,4.97,NULL,NULL,71,-0.317097,1.25382,0.00381422,10.01,37.599977,126.8655352,NULL,NULL,1.35,4.66,-0.01,GUIDED,101.971
68,12.193,88,26.75,4.98,4.98,NULL,NULL,72,-0.316576,1.25741,-0.00139918,10.02,37.5999837,126.865561,NULL,NULL,1.37,4.66,-0.01,GUIDED,103.102
69,12.193,88,26.67,4.98,4.98,NULL,NULL,71,-0.316418,1.2472,0.00623039,10.02,37.5999904,126.8655868,NULL,NULL,1.39,4.66,-0.02,GUIDED,104.216
70,12.193,88,26.67,4.98,4.98,NULL,NULL,71,-0.314744,1.24915,0.00882356,10.02,37.5999972,126.8656125,NULL,NULL,1.38,4.66,-0.01,GUIDED,105.229
71,12.193,88,26.75,4.97,4.97,NULL,NULL,72,-0.313407,1.25693,0.00706975,10.01,37.6000039,126.8656383,NULL,NULL,1.37,4.65,-0.01,GUIDED,106.253
72,12.193,88,26.83,4.96,4.96,NULL,NULL,72,-0.317421,1.257,0.00130988,10.01,37.6000138,126.8656768,NULL,NULL,1.36,4.65,-0.01,GUIDED,107.276
73,12.193,88,26.75,4.96,4.96,NULL,NULL,72,-0.320111,1.25948,0.00180853,10.01,37.6000204,126.8657025,NULL,NULL,1.37,4.65,-0.01,GUIDED,108.292
74,12.193,88,26.75,4.99,4.99,NULL,NULL,71,-0.318716,1.25269,0.00591493,10.01,37.6000304,126.8657412,NULL,NULL,1.38,4.66,-0.01,GUIDED,109.308
75,12.193,87,26.83,4.99,4.99,NULL,NULL,71,-0.319572,1.25289,0.00683318,10.01,37.600037,126.865767,NULL,NULL,1.37,4.67,-0.01,GUIDED,110.323
76,12.193,87,26.75,5,5,NULL,NULL,71,-0.316039,1.25331,0.00451763,10.01,37.600047,126.8658058,NULL,NULL,1.37,4.66,-0.01,GUIDED,111.344
77,12.193,87,26.92,5,5,NULL,NULL,71,-0.319682,1.25447,0.00266054,10.01,37.6000569,126.8658446,NULL,NULL,1.37,4.67,-0.01,GUIDED,112.358
78,12.193,87,26.92,5.01,5.01,NULL,NULL,72,-0.319624,1.25819,-0.00346353,10.01,37.6000669,126.8658835,NULL,NULL,1.39,4.67,0,GUIDED,113.372
79,12.193,87,26.67,5.02,5.02,NULL,NULL,71,-0.318249,1.24841,0.0041275,10.01,37.6000737,126.8659095,NULL,NULL,1.4,4.67,-0.01,GUIDED,114.385
80,12.193,87,26.75,5.01,5.01,NULL,NULL,71,-0.316482,1.25599,0.00376558,10,37.6000838,126.8659484,NULL,NULL,1.38,4.68,0,GUIDED,115.401
81,12.193,86,26.92,5,5,NULL,NULL,72,-0.317006,1.25841,0.00169404,10,37.6000939,126.8659873,NULL,NULL,1.38,4.67,0,GUIDED,116.419
82,12.193,86,26.92,5,5,NULL,NULL,72,-0.318743,1.2599,-0.000520178,10,37.600104,126.8660262,NULL,NULL,1.38,4.66,0,GUIDED,117.435
83,12.193,86,26.75,5,5,NULL,NULL,71,-0.317562,1.25257,0.00303267,10,37.6001141,126.866065,NULL,NULL,1.37,4.66,0,GUIDED,118.447
84,12.193,86,26.75,5,5,NULL,NULL,71,-0.318336,1.25326,0.00269759,10,37.6001242,126.8661038,NULL,NULL,1.38,4.67,0,GUIDED,119.555
85,12.193,86,26.83,5,5,NULL,NULL,72,-0.317536,1.2574,0.00195407,10,37.6001344,126.8661426,NULL,NULL,1.38,4.66,0,GUIDED,120.657
86,12.193,86,26.75,5,5,NULL,NULL,71,-0.315518,1.25197,0.00402112,9.99,37.6001412,126.8661684,NULL,NULL,1.38,4.65,0,GUIDED,121.668
87,12.193,86,27,4.99,4.99,NULL,NULL,72,-0.318974,1.26188,0.00151241,9.99,37.6001513,126.866207,NULL,NULL,1.36,4.64,0,GUIDED,122.681
88,12.193,85,26.75,5.01,5.01,NULL,NULL,71,-0.3202,1.24642,0.00735976,9.99,37.6001648,126.8662588,NULL,NULL,1.38,4.68,0,GUIDED,123.693
89,12.193,85,26.75,5.02,5.02,NULL,NULL,71,-0.315086,1.25028,0.0071308,9.99,37.600175,126.8662978,NULL,NULL,1.36,4.69,0,GUIDED,124.708
90,12.193,85,26.67,4.99,4.99,NULL,NULL,71,-0.31545,1.24921,0.00489859,9.99,37.600185,126.8663367,NULL,NULL,1.35,4.67,0,GUIDED,125.721
91,12.193,85,26.92,4.97,4.97,NULL,NULL,72,-0.315048,1.25926,-0.0021377,9.99,37.6001951,126.8663755,NULL,NULL,1.37,4.66,0,GUIDED,126.734
92,12.193,85,26.83,4.98,4.98,NULL,NULL,71,-0.318879,1.25338,0.00513556,9.99,37.6002053,126.8664141,NULL,NULL,1.39,4.67,0.01,GUIDED,127.747
93,12.193,85,26.92,4.99,4.99,NULL,NULL,71,-0.315095,1.25416,0.0091734,9.99,37.6002155,126.8664529,NULL,NULL,1.37,4.68,0,GUIDED,128.761
94,12.193,84,26.75,4.98,4.98,NULL,NULL,71,-0.314733,1.25416,0.0055851,9.99,37.6002255,126.8664915,NULL,NULL,1.35,4.66,0,GUIDED,129.814
95,12.193,84,26.83,4.97,4.97,NULL,NULL,71,-0.317171,1.25593,0.00188374,9.99,37.6002354,126.8665301,NULL,NULL,1.35,4.66,0,GUIDED,130.827
96,12.193,84,26.92,4.98,4.98,NULL,NULL,71,-0.317718,1.25405,0.00377655,9.99,37.6002454,126.8665687,NULL,NULL,1.38,4.68,0,GUIDED,131.838
97,12.193,84,26.75,4.98,4.98,NULL,NULL,71,-0.316819,1.2518,0.00884491,9.99,37.6002556,126.8666075,NULL,NULL,1.36,4.68,0,GUIDED,132.851
98,12.193,84,26.92,4.98,4.98,NULL,NULL,71,-0.314968,1.25665,0.00319877,9.99,37.6002655,126.8666464,NULL,NULL,1.35,4.7,0.01,GUIDED,133.92
99,12.193,84,26.75,4.97,4.97,NULL,NULL,71,-0.314299,1.25398,0.00186301,9.99,37.6002755,126.8666851,NULL,NULL,1.38,4.67,0,GUIDED,135.006
100,12.193,84,26.92,4.97,4.97,NULL,NULL,71,-0.316441,1.25399,0.00606363,9.99,37.6002823,126.8667107,NULL,NULL,1.38,4.66,0,GUIDED,136.027
101,12.193,83,27,4.97,4.97,NULL,NULL,72,-0.317779,1.25823,0.00451007,9.99,37.6002923,126.8667493,NULL,NULL,1.37,4.67,0,GUIDED,137.048
102,12.193,83,26.92,4.99,4.99,NULL,NULL,71,-0.318683,1.2529,0.00699271,9.98,37.6003023,126.8667879,NULL,NULL,1.37,4.68,0,GUIDED,138.079
103,12.193,83,26.92,5.01,5.01,NULL,NULL,72,-0.317546,1.25953,0.0063162,9.99,37.6003123,126.8668267,NULL,NULL,1.36,4.68,0.01,GUIDED,139.092
104,12.193,83,26.92,5,5,NULL,NULL,71,-0.318783,1.25544,0.00510281,9.99,37.6003223,126.8668656,NULL,NULL,1.36,4.68,0,GUIDED,140.104
105,12.193,83,27,5.02,5.02,NULL,NULL,71,-0.317968,1.25647,0.00131231,9.99,37.6003356,126.8669175,NULL,NULL,1.39,4.7,0,GUIDED,141.118
106,12.193,82,26.75,5.02,5.02,NULL,NULL,71,-0.314774,1.25013,0.00971568,9.99,37.6003458,126.8669565,NULL,NULL,1.39,4.69,0.01,GUIDED,142.13
107,12.193,82,26.75,5,5,NULL,NULL,71,-0.314974,1.25122,0.00923656,9.99,37.6003559,126.8669954,NULL,NULL,1.37,4.68,0,GUIDED,143.186
108,12.193,82,26.92,4.99,4.99,NULL,NULL,71,-0.318388,1.25562,0.00703255,9.99,37.6003658,126.8670342,NULL,NULL,1.36,4.67,0,GUIDED,144.198
109,12.193,82,26.75,4.99,4.99,NULL,NULL,71,-0.317857,1.25212,0.00477827,9.99,37.6003757,126.8670729,NULL,NULL,1.36,4.65,0,GUIDED,145.209
110,12.193,82,26.83,5,5,NULL,NULL,71,-0.320675,1.25249,0.00674269,9.99,37.6003891,126.8671246,NULL,NULL,1.39,4.67,0,GUIDED,146.226
111,12.193,82,26.75,5.02,5.02,NULL,NULL,71,-0.315753,1.25274,0.00677031,9.99,37.6003992,126.8671635,NULL,NULL,1.37,4.66,0,GUIDED,147.24
112,12.193,81,26.83,5,5,NULL,NULL,71,-0.318608,1.2563,0.00675741,9.99,37.6004092,126.8672024,NULL,NULL,1.38,4.65,0,GUIDED,148.251
113,12.193,81,26.83,5.01,5.01,NULL,NULL,72,-0.32083,1.25673,0.00548692,9.99,37.6004193,126.8672412,NULL,NULL,1.38,4.66,0,GUIDED,149.262
114,12.193,81,26.83,5.02,5.02,NULL,NULL,71,-0.318386,1.25233,0.00776977,9.99,37.6004293,126.8672802,NULL,NULL,1.38,4.68,0,GUIDED,150.34
115,12.193,81,26.83,5.02,5.02,NULL,NULL,71,-0.318059,1.2525,0.00474113,9.99,37.600436,126.8673063,NULL,NULL,1.37,4.67,0,GUIDED,151.351
116,12.193,81,26.92,5.02,5.02,NULL,NULL,71,-0.320173,1.25355,0.00500678,9.99,37.6004462,126.8673452,NULL,NULL,1.4,4.68,0,GUIDED,152.436
117,12.193,81,26.83,5.02,5.02,NULL,NULL,71,-0.314929,1.25513,0.00720193,9.99,37.6004564,126.8673841,NULL,NULL,1.39,4.69,0,GUIDED,153.448
118,12.193,80,26.75,4.99,4.99,NULL,NULL,71,-0.315532,1.25321,0.00925872,9.99,37.60047,126.8674359,NULL,NULL,1.38,4.65,0,GUIDED,154.465
119,12.193,80,26.92,4.98,4.98,NULL,NULL,71,-0.316015,1.25414,0.00828537,9.99,37.6004802,126.8674746,NULL,NULL,1.38,4.65,0,GUIDED,155.478
120,12.193,80,26.92,4.98,4.98,NULL,NULL,72,-0.318984,1.2583,0.00674878,9.99,37.6004902,126.8675133,NULL,NULL,1.38,4.66,0.01,GUIDED,156.489
121,12.193,80,26.92,5,5,NULL,NULL,71,-0.316739,1.25335,0.0126318,9.99,37.6005037,126.867565,NULL,NULL,1.37,4.68,0,GUIDED,157.506
122,12.193,80,26.83,4.99,4.99,NULL,NULL,71,-0.316391,1.25223,0.0106115,9.99,37.6005136,126.8676038,NULL,NULL,1.36,4.67,0,GUIDED,158.527
123,12.193,80,27,4.99,4.99,NULL,NULL,72,-0.31722,1.25832,0.00713914,9.99,37.6005202,126.8676297,NULL,NULL,1.36,4.66,0,GUIDED,159.56
124,12.193,80,26.92,4.99,4.99,NULL,NULL,71,-0.318973,1.25552,0.00635001,9.99,37.6005268,126.8676555,NULL,NULL,1.37,4.66,0,GUIDED,160.571
125,12.193,79,26.75,5,5,NULL,NULL,71,-0.316464,1.25488,0.0107841,9.99,37.6005403,126.8677072,NULL,NULL,1.38,4.65,0,GUIDED,161.58
126,12.193,79,26.75,4.99,4.99,NULL,NULL,71,-0.315134,1.25062,0.013152,9.99,37.6005504,126.8677459,NULL,NULL,1.37,4.66,0,GUIDED,162.595
127,12.193,79,27,4.99,4.99,NULL,NULL,72,-0.316355,1.25885,0.00675767,9.99,37.6005603,126.8677848,NULL,NULL,1.37,4.67,0,GUIDED,163.624
128,12.193,79,27.08,4.98,4.98,NULL,NULL,72,-0.318442,1.26034,0.00364194,9.99,37.600567,126.8678106,NULL,NULL,1.38,4.68,0,GUIDED,165.139
129,12.193,79,26.92,4.99,4.99,NULL,NULL,72,-0.317868,1.25906,0.00391576,9.99,37.6005704,126.8678235,NULL,NULL,1.39,4.68,0,GUIDED,166.725
130,12.193,79,26.92,4.99,4.99,NULL,NULL,71,-0.315396,1.25656,0.00991044,9.99,37.6005806,126.8678623,NULL,NULL,1.39,4.67,0,GUIDED,168.603
131,12.193,79,26.75,4.98,4.98,NULL,NULL,71,-0.313904,1.25491,0.0100845,9.99,37.6005873,126.8678881,NULL,NULL,1.38,4.66,0,GUIDED,170.258
132,12.193,78,26.92,4.97,4.97,NULL,NULL,72,-0.315513,1.25713,0.00983547,9.99,37.6005941,126.8679138,NULL,NULL,1.37,4.66,0,GUIDED,171.949
133,12.193,78,26.92,4.97,4.97,NULL,NULL,71,-0.3198,1.25585,0.0114581,9.99,37.6006041,126.8679523,NULL,NULL,1.38,4.65,0,GUIDED,173.104
134,12.193,78,26.92,4.99,4.99,NULL,NULL,71,-0.319951,1.24881,0.0166672,9.99,37.6006108,126.8679781,NULL,NULL,1.36,4.68,0,GUIDED,174.66
135,12.193,78,26.83,5.01,5.01,NULL,NULL,71,-0.31625,1.25393,0.0130864,9.99,37.6006175,126.868004,NULL,NULL,1.36,4.68,0,GUIDED,175.839
136,12.193,78,26.92,5.01,5.01,NULL,NULL,71,-0.315904,1.25625,0.00903467,9.99,37.6006242,126.8680299,NULL,NULL,1.37,4.67,0,GUIDED,177.152
137,12.193,78,26.83,5,5,NULL,NULL,71,-0.317755,1.25299,0.0123857,9.99,37.6006309,126.8680558,NULL,NULL,1.37,4.67,0,GUIDED,178.221
138,12.193,78,27.08,5.01,5.01,NULL,NULL,72,-0.316978,1.25727,0.0100959,9.99,37.6006409,126.8680946,NULL,NULL,1.37,4.65,0,GUIDED,179.43
139,12.193,78,27,5.01,5.01,NULL,NULL,72,-0.318972,1.2569,0.00966789,9.99,37.6006477,126.8681204,NULL,NULL,1.38,4.66,0,GUIDED,180.478
140,12.193,77,26.92,5.02,5.02,NULL,NULL,71,-0.319719,1.25369,0.0124941,9.99,37.6006578,126.8681593,NULL,NULL,1.38,4.67,0,GUIDED,181.698
141,12.193,77,27.08,5.04,5.04,NULL,NULL,71,-0.316766,1.25138,0.0154624,9.99,37.6006678,126.8681984,NULL,NULL,1.35,4.68,0,GUIDED,183.917
142,12.193,77,27,5.04,5.04,NULL,NULL,71,-0.317167,1.25653,0.00930423,10,37.6006745,126.8682245,NULL,NULL,1.34,4.68,0,GUIDED,185.839
143,12.193,77,26.92,5.04,5.04,NULL,NULL,72,-0.315979,1.25699,0.00697839,10,37.6006778,126.8682375,NULL,NULL,1.35,4.68,0,GUIDED,186.982
144,12.193,77,26.92,5.04,5.04,NULL,NULL,71,-0.314877,1.25514,0.00634784,10,37.6006812,126.8682505,NULL,NULL,1.37,4.67,0,GUIDED,188.123
145,12.193,77,26.92,5.02,5.02,NULL,NULL,72,-0.317933,1.25696,0.0111773,10,37.6006914,126.8682894,NULL,NULL,1.37,4.64,0,GUIDED,189.825
146,12.193,77,26.92,5.02,5.02,NULL,NULL,72,-0.31971,1.25819,0.0109156,10,37.6006982,126.8683154,NULL,NULL,1.37,4.65,0,GUIDED,191.724
147,12.193,77,26.75,5.02,5.02,NULL,NULL,71,-0.317183,1.2472,0.0134183,10,37.600705,126.8683413,NULL,NULL,1.37,4.65,-0.01,GUIDED,192.742
148,12.193,77,26.92,5.02,5.02,NULL,NULL,71,-0.318139,1.24864,0.0154558,10,37.6007118,126.8683672,NULL,NULL,1.36,4.66,-0.01,GUIDED,193.928
149,12.193,76,26.92,5.03,5.03,NULL,NULL,71,-0.316179,1.2559,0.0132298,10,37.600722,126.8684062,NULL,NULL,1.36,4.66,0,GUIDED,196.027
150,12.193,76,27,5.03,5.03,NULL,NULL,71,-0.31539,1.25615,0.0115548,10,37.6007288,126.8684323,NULL,NULL,1.36,4.66,0,GUIDED,197.271
151,12.193,76,26.83,5.02,5.02,NULL,NULL,71,-0.317208,1.25184,0.013057,10.01,37.6007391,126.8684712,NULL,NULL,1.36,4.64,0,GUIDED,198.426
152,12.193,76,26.92,5.02,5.02,NULL,NULL,71,-0.317288,1.25462,0.014971,10.01,37.6007493,126.86851,NULL,NULL,1.36,4.65,0,GUIDED,199.919
153,12.193,76,26.83,5.01,5.01,NULL,NULL,71,-0.316175,1.25073,0.0180253,10.01,37.6007628,126.8685618,NULL,NULL,1.36,4.63,-0.01,GUIDED,201.965
154,12.193,76,26.92,5.01,5.01,NULL,NULL,71,-0.315753,1.25384,0.019078,10.01,37.6007729,126.8686007,NULL,NULL,1.33,4.65,-0.01,GUIDED,203.412
155,12.193,75,26.92,5,5,NULL,NULL,71,-0.317253,1.25331,0.012803,10.01,37.6007828,126.8686397,NULL,NULL,1.34,4.64,-0.01,GUIDED,204.437
156,12.193,75,27,5.01,5.01,NULL,NULL,71,-0.315508,1.25478,0.0158631,10.01,37.6007929,126.8686786,NULL,NULL,1.36,4.65,-0.01,GUIDED,205.474
157,12.193,75,26.92,5,5,NULL,NULL,71,-0.314184,1.25314,0.016255,10.01,37.6008063,126.8687305,NULL,NULL,1.34,4.65,-0.01,GUIDED,206.491
158,12.193,75,26.75,4.98,4.98,NULL,NULL,71,-0.315643,1.25093,0.0164654,10.02,37.6008194,126.8687823,NULL,NULL,1.33,4.64,-0.02,GUIDED,207.559
159,12.193,75,26.83,4.98,4.98,NULL,NULL,72,-0.316301,1.26109,0.0098163,10.02,37.6008293,126.8688211,NULL,NULL,1.34,4.64,-0.01,GUIDED,208.576
160,12.193,74,26.75,4.96,4.96,NULL,NULL,71,-0.316625,1.25627,0.0146838,10.02,37.600846,126.8688855,NULL,NULL,1.37,4.62,-0.02,GUIDED,209.591
161,12.193,74,26.75,4.96,4.96,NULL,NULL,71,-0.318725,1.25586,0.013622,10.02,37.6008593,126.868937,NULL,NULL,1.37,4.64,-0.01,GUIDED,210.63
162,12.193,74,26.67,4.97,4.97,NULL,NULL,71,-0.315743,1.25405,0.014417,10.01,37.6008726,126.8689886,NULL,NULL,1.37,4.64,-0.01,GUIDED,211.649
163,12.193,74,26.92,4.96,4.96,NULL,NULL,72,-0.315844,1.26121,0.0144766,10.01,37.600886,126.86904,NULL,NULL,1.38,4.64,-0.01,GUIDED,212.67
164,12.193,74,26.75,4.96,4.96,NULL,NULL,71,-0.319355,1.25034,0.0186302,10,37.6008992,126.8690916,NULL,NULL,1.35,4.66,0,GUIDED,213.758
165,12.193,73,26.67,4.97,4.97,NULL,NULL,71,-0.312962,1.2519,0.0143716,10,37.6009123,126.8691433,NULL,NULL,1.36,4.66,0,GUIDED,214.799
166,12.193,73,26.75,4.94,4.94,NULL,NULL,71,-0.317572,1.25608,0.0110333,9.99,37.6009255,126.8691947,NULL,NULL,1.4,4.63,0,GUIDED,215.821
167,12.193,73,26.75,4.96,4.96,NULL,NULL,71,-0.32021,1.25266,0.0186708,9.99,37.6009389,126.869246,NULL,NULL,1.41,4.66,0,GUIDED,216.854
168,12.193,73,26.83,4.98,4.98,NULL,NULL,71,-0.316018,1.25134,0.0196856,9.98,37.6009522,126.8692976,NULL,NULL,1.4,4.66,0,GUIDED,217.872
169,12.193,72,26.67,4.97,4.97,NULL,NULL,71,-0.317288,1.24781,0.0176874,9.98,37.6009653,126.8693492,NULL,NULL,1.41,4.66,0.01,GUIDED,218.888
170,12.193,72,27,4.97,4.97,NULL,NULL,72,-0.320067,1.2621,0.0114992,9.97,37.6009784,126.8694008,NULL,NULL,1.42,4.66,0.02,GUIDED,219.902
171,12.193,72,26.75,4.99,4.99,NULL,NULL,71,-0.31829,1.2514,0.0142886,9.97,37.6009883,126.8694396,NULL,NULL,1.43,4.65,0.02,GUIDED,220.911
172,12.193,72,26.83,4.99,4.99,NULL,NULL,71,-0.318094,1.25327,0.0165897,9.97,37.6010015,126.8694912,NULL,NULL,1.41,4.64,0.02,GUIDED,221.921
173,12.193,72,26.92,4.99,4.99,NULL,NULL,71,-0.323006,1.2534,0.0140507,9.97,37.6010145,126.8695428,NULL,NULL,1.42,4.66,0.02,GUIDED,222.971
174,12.193,72,26.92,5.02,5.02,NULL,NULL,72,-0.320693,1.25672,0.00852812,9.96,37.6010212,126.8695689,NULL,NULL,1.45,4.68,0.02,GUIDED,223.984
175,12.193,71,27.08,5.03,5.03,NULL,NULL,71,-0.318059,1.25543,0.0136703,9.96,37.6010313,126.8696079,NULL,NULL,1.47,4.67,0.02,GUIDED,225.002
176,12.193,71,26.92,5.02,5.02,NULL,NULL,72,-0.314968,1.26078,0.00888515,9.96,37.6010414,126.8696469,NULL,NULL,1.45,4.66,0.03,GUIDED,226.015
177,12.193,71,26.92,5,5,NULL,NULL,72,-0.31722,1.25826,0.00953069,9.96,37.6010481,126.8696729,NULL,NULL,1.47,4.66,0.03,GUIDED,227.028
178,12.193,71,26.67,4.99,4.99,NULL,NULL,71,-0.316749,1.24631,0.0210789,9.96,37.6010582,126.8697118,NULL,NULL,1.46,4.67,0.03,GUIDED,228.039
179,12.193,71,26.75,4.97,4.97,NULL,NULL,71,-0.313039,1.25223,0.0130442,9.96,37.6010681,126.8697507,NULL,NULL,1.42,4.67,0.02,GUIDED,229.096
180,12.193,71,26.92,4.96,4.96,NULL,NULL,71,-0.314909,1.25387,0.00837066,9.96,37.6010746,126.8697767,NULL,NULL,1.45,4.65,0.02,GUIDED,230.145
181,12.193,70,27,4.95,4.95,NULL,NULL,72,-0.319075,1.25993,0.00964047,9.96,37.6010846,126.8698152,NULL,NULL,1.46,4.65,0.02,GUIDED,231.615
182,12.193,70,27.17,4.96,4.96,NULL,NULL,72,-0.317362,1.26017,0.00843808,9.96,37.6010913,126.869841,NULL,NULL,1.47,4.66,0.02,GUIDED,233.231
183,12.193,70,26.83,4.97,4.97,NULL,NULL,71,-0.316411,1.25312,0.0108583,9.96,37.6011013,126.8698796,NULL,NULL,1.48,4.66,0.02,GUIDED,234.645
184,12.193,70,26.92,4.97,4.97,NULL,NULL,71,-0.315378,1.25163,0.0126919,9.97,37.6011114,126.8699183,NULL,NULL,1.48,4.66,0.02,GUIDED,235.762
185,12.193,70,26.92,4.96,4.96,NULL,NULL,71,-0.314266,1.25304,0.0139805,9.97,37.6011181,126.8699441,NULL,NULL,1.47,4.66,0.02,GUIDED,236.803
186,12.193,70,26.92,4.95,4.95,NULL,NULL,71,-0.314247,1.25406,0.011736,9.97,37.6011281,126.8699827,NULL,NULL,1.46,4.65,0.02,GUIDED,237.829
187,12.193,70,27,4.95,4.95,NULL,NULL,71,-0.318706,1.25156,0.0106345,9.97,37.601138,126.8700212,NULL,NULL,1.46,4.66,0.02,GUIDED,238.848
188,12.193,69,27,4.96,4.96,NULL,NULL,71,-0.316638,1.25617,0.00719533,9.97,37.6011479,126.8700596,NULL,NULL,1.47,4.65,0.02,GUIDED,239.863
189,12.193,69,27,4.97,4.97,NULL,NULL,72,-0.318037,1.25911,0.00752833,9.98,37.601158,126.8700982,NULL,NULL,1.48,4.66,0.02,GUIDED,240.879
190,12.193,69,26.92,4.97,4.97,NULL,NULL,71,-0.319042,1.25258,0.0113298,9.98,37.6011681,126.8701367,NULL,NULL,1.47,4.68,0.01,GUIDED,241.893
191,12.193,69,27.08,4.97,4.97,NULL,NULL,71,-0.316058,1.25625,0.00927415,9.98,37.601178,126.8701754,NULL,NULL,1.45,4.69,0.01,GUIDED,242.937
192,12.193,69,26.83,4.97,4.97,NULL,NULL,71,-0.317035,1.25611,0.00349862,9.98,37.601188,126.870214,NULL,NULL,1.47,4.69,0.01,GUIDED,243.951
193,12.193,69,27,4.96,4.96,NULL,NULL,71,-0.316636,1.25386,0.00735287,9.98,37.6011948,126.8702398,NULL,NULL,1.49,4.69,0,GUIDED,244.981
194,12.193,69,26.92,4.96,4.96,NULL,NULL,71,-0.315791,1.25593,0.00788717,9.99,37.6012015,126.8702656,NULL,NULL,1.48,4.69,0.01,GUIDED,246.054
195,12.193,68,26.83,4.95,4.95,NULL,NULL,71,-0.316989,1.25149,0.0106726,9.99,37.6012117,126.8703041,NULL,NULL,1.48,4.7,0,GUIDED,247.067
196,12.193,68,26.92,4.95,4.95,NULL,NULL,72,-0.318735,1.25597,0.0088916,9.99,37.6012218,126.8703427,NULL,NULL,1.48,4.71,0,GUIDED,248.197
197,12.193,68,26.83,4.97,4.97,NULL,NULL,71,-0.316223,1.25188,0.00891594,9.99,37.6012284,126.8703685,NULL,NULL,1.47,4.71,0,GUIDED,249.384
198,12.193,68,26.92,4.96,4.96,NULL,NULL,71,-0.31569,1.25263,0.00924326,9.99,37.6012385,126.8704072,NULL,NULL,1.48,4.69,0,GUIDED,250.66
199,12.193,68,26.92,4.95,4.95,NULL,NULL,71,-0.316995,1.25275,0.0104416,10,37.6012452,126.8704327,NULL,NULL,1.47,4.69,0,GUIDED,251.689
200,12.193,68,27,4.96,4.96,NULL,NULL,71,-0.318989,1.25275,0.00976153,10,37.6012551,126.8704712,NULL,NULL,1.49,4.7,0,GUIDED,252.718
201,12.193,68,26.92,4.98,4.98,NULL,NULL,71,-0.318988,1.25136,0.0112439,10,37.601265,126.8705099,NULL,NULL,1.48,4.71,0,GUIDED,253.755
202,12.193,67,26.75,4.98,4.98,NULL,NULL,71,-0.317093,1.25259,0.00848562,10,37.6012749,126.8705485,NULL,NULL,1.48,4.7,0,GUIDED,254.77
203,12.193,67,26.83,4.98,4.98,NULL,NULL,71,-0.318393,1.25302,0.00767991,10.01,37.6012848,126.8705872,NULL,NULL,1.48,4.7,0,GUIDED,255.782
204,12.193,67,27,4.97,4.97,NULL,NULL,72,-0.320027,1.2591,0.00312439,10.01,37.6012979,126.8706387,NULL,NULL,1.5,4.69,-0.01,GUIDED,256.863
205,12.193,67,26.92,4.99,4.99,NULL,NULL,71,-0.32229,1.25533,0.00410676,10.01,37.6013078,126.8706774,NULL,NULL,1.51,4.71,-0.01,GUIDED,257.879
206,12.193,67,27,5.01,5.01,NULL,NULL,71,-0.320573,1.2564,0.00387864,10.01,37.6013145,126.8707033,NULL,NULL,1.52,4.73,-0.01,GUIDED,259.22
207,12.193,67,26.92,5.01,5.01,NULL,NULL,71,-0.317571,1.25381,0.00669399,10.01,37.6013212,126.8707293,NULL,NULL,1.51,4.73,-0.01,GUIDED,260.243
208,12.193,67,26.92,5,5,NULL,NULL,71,-0.318552,1.25547,0.00680096,10.01,37.6013279,126.8707552,NULL,NULL,1.5,4.73,-0.01,GUIDED,261.418
209,12.193,66,27,4.99,4.99,NULL,NULL,72,-0.317702,1.25923,0.00349389,10.01,37.6013345,126.8707811,NULL,NULL,1.5,4.74,-0.02,GUIDED,262.863
210,12.193,66,26.92,4.97,4.97,NULL,NULL,71,-0.315271,1.25348,0.00169418,10.02,37.6013445,126.87082,NULL,NULL,1.51,4.72,-0.02,GUIDED,263.939
211,12.193,66,26.92,4.95,4.95,NULL,NULL,72,-0.318381,1.25796,0.00186711,10.02,37.6013545,126.8708586,NULL,NULL,1.5,4.7,-0.01,GUIDED,265.037
212,12.193,66,26.92,4.95,4.95,NULL,NULL,71,-0.319781,1.2549,0.0010718,10.02,37.6013612,126.8708842,NULL,NULL,1.51,4.71,-0.02,GUIDED,266.068
213,12.193,66,26.75,4.96,4.96,NULL,NULL,71,-0.319603,1.25188,0.0049123,10.02,37.6013679,126.8709099,NULL,NULL,1.51,4.72,-0.02,GUIDED,267.295
214,12.193,66,26.83,4.96,4.96,NULL,NULL,71,-0.319056,1.25126,0.00614833,10.02,37.6013712,126.8709227,NULL,NULL,1.52,4.71,-0.02,GUIDED,268.335
215,12.193,66,26.92,4.97,4.97,NULL,NULL,72,-0.31985,1.25732,0.00472878,10.02,37.6013779,126.8709484,NULL,NULL,1.51,4.72,-0.02,GUIDED,269.349
216,12.193,66,26.83,4.98,4.98,NULL,NULL,71,-0.320587,1.25518,0.00378438,10.02,37.601388,126.8709871,NULL,NULL,1.52,4.72,-0.02,GUIDED,270.376
217,12.193,65,26.92,4.98,4.98,NULL,NULL,71,-0.320791,1.25285,0.00638016,10.02,37.6013981,126.8710258,NULL,NULL,1.5,4.73,-0.02,GUIDED,271.418
218,12.193,65,27,4.99,4.99,NULL,NULL,72,-0.321372,1.26193,-0.00493481,10.02,37.601408,126.8710645,NULL,NULL,1.51,4.73,-0.02,GUIDED,272.432
219,12.193,65,26.75,4.99,4.99,NULL,NULL,71,-0.321384,1.24891,0.0075311,10.02,37.6014214,126.8711162,NULL,NULL,1.53,4.73,-0.02,GUIDED,273.447
220,12.193,65,26.83,4.99,4.99,NULL,NULL,71,-0.319568,1.25296,-0.000553463,10.02,37.6014381,126.871181,NULL,NULL,1.51,4.72,-0.01,GUIDED,274.458
221,12.193,65,26.92,4.98,4.98,NULL,NULL,72,-0.323565,1.25822,-0.0029546,10.02,37.6014514,126.8712326,NULL,NULL,1.53,4.73,-0.02,GUIDED,275.472
222,12.193,64,26.83,5,5,NULL,NULL,72,-0.320929,1.25765,0.00087389,10.02,37.6014648,126.8712842,NULL,NULL,1.52,4.74,-0.01,GUIDED,276.55
223,12.193,64,26.67,4.99,4.99,NULL,NULL,71,-0.319882,1.25348,0.00182079,10.02,37.6014715,126.87131,NULL,NULL,1.51,4.73,-0.01,GUIDED,277.564
224,12.193,64,26.75,4.98,4.98,NULL,NULL,71,-0.320614,1.24887,0.00318451,10.01,37.6014815,126.8713487,NULL,NULL,1.51,4.73,-0.01,GUIDED,278.626
225,12.193,64,26.75,4.98,4.98,NULL,NULL,71,-0.322251,1.25386,-0.00108949,10.01,37.6014882,126.8713744,NULL,NULL,1.51,4.74,-0.01,GUIDED,279.646
226,12.193,64,26.75,4.98,4.98,NULL,NULL,71,-0.321311,1.25264,-0.00314616,10.01,37.6014983,126.8714131,NULL,NULL,1.54,4.74,-0.01,GUIDED,280.659
227,12.193,64,26.67,4.98,4.98,NULL,NULL,71,-0.321837,1.25138,0.00110994,10.01,37.6015084,126.8714518,NULL,NULL,1.53,4.73,-0.01,GUIDED,281.685
228,12.193,63,26.75,4.98,4.98,NULL,NULL,71,-0.322787,1.25376,0.000990449,10.01,37.6015185,126.8714904,NULL,NULL,1.53,4.74,-0.01,GUIDED,282.701
229,12.193,63,26.92,4.98,4.98,NULL,NULL,72,-0.321515,1.25932,-0.00235879,10,37.6015252,126.8715163,NULL,NULL,1.53,4.75,0,GUIDED,283.768
230,12.193,63,26.67,4.98,4.98,NULL,NULL,72,-0.321476,1.25854,-0.00400186,10,37.6015353,126.8715551,NULL,NULL,1.55,4.75,0,GUIDED,284.789
231,12.193,63,26.75,4.97,4.97,NULL,NULL,71,-0.319683,1.2528,0.00327457,10,37.6015453,126.871594,NULL,NULL,1.54,4.75,0,GUIDED,286.717
232,12.193,63,26.75,4.96,4.96,NULL,NULL,72,-0.321011,1.25691,-0.0014001,10,37.601552,126.8716197,NULL,NULL,1.53,4.74,0,GUIDED,288.233
233,12.193,63,26.83,4.96,4.96,NULL,NULL,72,-0.322774,1.25824,-0.00340005,9.99,37.6015585,126.8716454,NULL,NULL,1.52,4.74,0,GUIDED,289.696
234,12.193,63,26.75,4.96,4.96,NULL,NULL,71,-0.3215,1.25226,-0.00340917,9.99,37.6015683,126.871684,NULL,NULL,1.54,4.73,0,GUIDED,290.718
235,12.193,63,26.75,4.96,4.96,NULL,NULL,71,-0.321924,1.2521,0.000503784,9.99,37.6015749,126.8717098,NULL,NULL,1.52,4.74,0,GUIDED,291.744
236,12.193,62,26.75,4.96,4.96,NULL,NULL,71,-0.320861,1.25378,-0.00187638,9.99,37.6015815,126.8717357,NULL,NULL,1.52,4.75,0,GUIDED,293.012
237,12.193,62,26.92,4.96,4.96,NULL,NULL,72,-0.320631,1.25994,-0.0073416,9.99,37.601588,126.8717615,NULL,NULL,1.53,4.75,0,GUIDED,294.122
238,12.193,62,27,4.96,4.96,NULL,NULL,72,-0.321607,1.25825,-0.00959441,9.98,37.601598,126.8718,NULL,NULL,1.57,4.74,0,GUIDED,296.704
239,12.193,62,26.75,4.96,4.96,NULL,NULL,71,-0.319055,1.25248,-0.00390451,9.98,37.6016047,126.8718257,NULL,NULL,1.57,4.74,0.01,GUIDED,298.643
240,12.193,62,26.67,4.95,4.95,NULL,NULL,71,-0.31874,1.25353,-0.000830898,9.98,37.6016114,126.8718513,NULL,NULL,1.55,4.73,0.01,GUIDED,300.926
241,12.193,62,26.75,4.93,4.93,NULL,NULL,71,-0.318703,1.25086,-0.0026292,9.98,37.6016213,126.8718898,NULL,NULL,1.52,4.72,0.01,GUIDED,303.054
242,12.193,62,26.75,4.93,4.93,NULL,NULL,71,-0.32216,1.253,-0.00691848,9.98,37.6016278,126.8719154,NULL,NULL,1.53,4.72,0.01,GUIDED,304.529
243,12.193,61,26.83,4.94,4.94,NULL,NULL,71,-0.318298,1.25772,-0.00644459,9.97,37.6016378,126.8719537,NULL,NULL,1.55,4.72,0.01,GUIDED,306.021
244,12.193,61,26.92,4.93,4.93,NULL,NULL,72,-0.319785,1.26052,-0.00896703,9.97,37.6016445,126.8719792,NULL,NULL,1.54,4.72,0.02,GUIDED,308.12
245,12.193,61,26.75,4.93,4.93,NULL,NULL,71,-0.317747,1.25559,-0.00941558,9.97,37.6016544,126.8720174,NULL,NULL,1.55,4.71,0.02,GUIDED,309.852
246,12.193,61,26.92,4.92,4.92,NULL,NULL,71,-0.31966,1.25598,-0.00641145,9.97,37.6016611,126.8720428,NULL,NULL,1.54,4.72,0.01,GUIDED,311.209
247,12.193,61,26.83,4.92,4.92,NULL,NULL,71,-0.318352,1.25622,-0.00672574,9.97,37.6016677,126.8720683,NULL,NULL,1.53,4.72,0.02,GUIDED,312.505
248,12.193,61,26.75,4.91,4.91,NULL,NULL,71,-0.316902,1.25328,-0.00904991,9.97,37.6016775,126.8721066,NULL,NULL,1.53,4.73,0.02,GUIDED,314.25
249,12.193,61,26.92,4.9,4.9,NULL,NULL,71,-0.318031,1.25065,-0.00868377,9.97,37.6016841,126.872132,NULL,NULL,1.53,4.73,0.02,GUIDED,315.375
250,12.193,61,26.83,4.9,4.9,NULL,NULL,71,-0.317478,1.25396,-0.00961407,9.97,37.6016908,126.8721574,NULL,NULL,1.54,4.72,0.02,GUIDED,316.404
251,12.193,60,26.83,4.88,4.88,NULL,NULL,72,-0.317718,1.25759,-0.00796201,9.97,37.6017008,126.8721953,NULL,NULL,1.54,4.71,0.02,GUIDED,317.461
252,12.193,60,26.83,4.87,4.87,NULL,NULL,71,-0.31663,1.25605,-0.00845357,9.97,37.6017107,126.8722331,NULL,NULL,1.53,4.71,0.02,GUIDED,318.497
253,12.193,60,27,4.87,4.87,NULL,NULL,72,-0.317192,1.25701,-0.00953984,9.97,37.6017206,126.872271,NULL,NULL,1.54,4.71,0.01,GUIDED,319.564
254,12.193,60,26.75,4.87,4.87,NULL,NULL,71,-0.318188,1.25071,-0.00688952,9.97,37.6017305,126.8723089,NULL,NULL,1.54,4.72,0.02,GUIDED,320.621
255,12.193,60,27,4.87,4.87,NULL,NULL,71,-0.316713,1.25588,-0.00845142,9.97,37.6017404,126.872347,NULL,NULL,1.55,4.73,0.01,GUIDED,321.642
256,12.193,60,26.75,4.86,4.86,NULL,NULL,71,-0.316281,1.25235,-0.00602564,9.97,37.6017501,126.872385,NULL,NULL,1.53,4.73,0.02,GUIDED,322.735
257,12.193,59,26.75,4.85,4.85,NULL,NULL,71,-0.314216,1.25341,-0.0101378,9.98,37.6017629,126.8724356,NULL,NULL,1.52,4.75,0.01,GUIDED,323.748
258,12.193,59,26.92,4.83,4.83,NULL,NULL,72,-0.313363,1.25836,-0.0156444,9.98,37.6017726,126.8724735,NULL,NULL,1.54,4.72,0.01,GUIDED,324.763
259,12.193,59,26.83,4.82,4.82,NULL,NULL,72,-0.31683,1.2567,-0.0128823,9.98,37.6017823,126.8725111,NULL,NULL,1.55,4.71,0.01,GUIDED,325.778
260,12.193,59,26.92,4.82,4.82,NULL,NULL,71,-0.317777,1.25559,-0.0134294,9.98,37.6017888,126.8725361,NULL,NULL,1.56,4.72,0.01,GUIDED,326.813
261,12.193,59,26.67,4.83,4.83,NULL,NULL,71,-0.315808,1.24822,-0.00997743,9.99,37.6017986,126.8725738,NULL,NULL,1.56,4.73,0.01,GUIDED,327.832
262,12.193,59,26.67,4.83,4.83,NULL,NULL,71,-0.317643,1.24808,-0.00829812,9.99,37.6018083,126.8726114,NULL,NULL,1.55,4.73,0,GUIDED,328.863
263,12.193,58,26.83,4.84,4.84,NULL,NULL,71,-0.316763,1.25335,-0.0139479,9.99,37.6018212,126.8726615,NULL,NULL,1.54,4.74,0,GUIDED,329.917
264,12.193,58,26.75,4.83,4.83,NULL,NULL,71,-0.315131,1.25314,-0.0154994,9.99,37.601831,126.872699,NULL,NULL,1.56,4.73,0,GUIDED,330.928
265,12.193,58,26.75,4.83,4.83,NULL,NULL,71,-0.315077,1.25268,-0.0114719,10,37.6018474,126.8727615,NULL,NULL,1.55,4.73,0,GUIDED,331.985
266,12.193,58,26.75,4.82,4.82,NULL,NULL,71,-0.3153,1.25422,-0.0145267,10,37.6018571,126.872799,NULL,NULL,1.54,4.73,0,GUIDED,332.996
267,12.193,58,26.75,4.82,4.82,NULL,NULL,72,-0.317201,1.25727,-0.0187711,10,37.6018702,126.8728489,NULL,NULL,1.57,4.73,0,GUIDED,334.008
268,12.193,57,26.83,4.82,4.82,NULL,NULL,72,-0.317261,1.26062,-0.0174324,10,37.6018834,126.8728989,NULL,NULL,1.55,4.74,-0.01,GUIDED,335.026
269,12.193,57,26.58,4.83,4.83,NULL,NULL,71,-0.316147,1.25168,-0.012419,10,37.60189,126.8729239,NULL,NULL,1.55,4.74,0,GUIDED,336.055
270,12.193,57,26.92,4.83,4.83,NULL,NULL,71,-0.317445,1.25157,-0.0118518,10,37.6018998,126.8729616,NULL,NULL,1.54,4.76,-0.01,GUIDED,337.13
271,12.193,57,26.75,4.83,4.83,NULL,NULL,72,-0.312487,1.2608,-0.016976,10.01,37.6019128,126.8730116,NULL,NULL,1.53,4.74,0,GUIDED,338.166
272,12.193,57,26.58,4.8,4.8,NULL,NULL,71,-0.317123,1.25132,-0.0135497,10.01,37.6019258,126.8730613,NULL,NULL,1.54,4.73,0,GUIDED,339.182
273,12.193,56,26.75,4.8,4.8,NULL,NULL,71,-0.316134,1.2538,-0.0117165,10.01,37.601942,126.8731234,NULL,NULL,1.54,4.74,-0.01,GUIDED,340.205
274,12.193,56,26.83,4.8,4.8,NULL,NULL,72,-0.317433,1.25741,-0.0167777,10.01,37.6019483,126.8731484,NULL,NULL,1.54,4.75,-0.01,GUIDED,341.363
275,12.193,56,26.75,4.81,4.81,NULL,NULL,72,-0.317335,1.26112,-0.0178517,10,37.6019547,126.8731734,NULL,NULL,1.54,4.75,0,GUIDED,342.589
276,12.193,56,26.67,4.81,4.81,NULL,NULL,72,-0.315527,1.25665,-0.017114,10,37.6019612,126.8731983,NULL,NULL,1.55,4.75,0,GUIDED,343.657
277,12.193,56,26.75,4.81,4.81,NULL,NULL,71,-0.317743,1.2525,-0.0141369,10,37.6019676,126.8732233,NULL,NULL,1.56,4.75,0,GUIDED,344.67
278,12.193,56,26.67,4.81,4.81,NULL,NULL,71,-0.315348,1.25091,-0.0117909,10,37.6019741,126.8732483,NULL,NULL,1.55,4.76,0,GUIDED,345.713
279,12.193,56,26.83,4.8,4.8,NULL,NULL,72,-0.314593,1.26145,-0.0180066,10,37.6019836,126.8732858,NULL,NULL,1.54,4.75,0,GUIDED,346.793
280,12.193,56,26.75,4.79,4.79,NULL,NULL,72,-0.314564,1.25697,-0.0183342,10,37.6019933,126.8733232,NULL,NULL,1.56,4.74,0,GUIDED,347.805
281,12.193,55,26.5,4.79,4.79,NULL,NULL,71,-0.314879,1.24657,-0.00983042,10,37.6020029,126.8733604,NULL,NULL,1.54,4.73,0,GUIDED,348.818
282,12.193,55,26.75,4.79,4.79,NULL,NULL,71,-0.317478,1.25065,-0.0151155,10,37.6020123,126.8733977,NULL,NULL,1.52,4.74,0,GUIDED,349.833
283,12.193,55,26.75,4.79,4.79,NULL,NULL,71,-0.316706,1.25205,-0.0196852,10,37.6020186,126.8734227,NULL,NULL,1.53,4.76,0,GUIDED,350.856
284,12.193,55,26.83,4.8,4.8,NULL,NULL,72,-0.313466,1.26076,-0.0253373,9.99,37.6020283,126.8734598,NULL,NULL,1.55,4.74,0,GUIDED,351.875
285,12.193,55,26.58,4.79,4.79,NULL,NULL,71,-0.315515,1.25083,-0.0169027,10,37.6020381,126.873497,NULL,NULL,1.56,4.72,0,GUIDED,352.888
286,12.193,55,26.75,4.79,4.79,NULL,NULL,71,-0.318831,1.25225,-0.0139901,9.99,37.602048,126.873534,NULL,NULL,1.54,4.72,0,GUIDED,353.899
287,12.193,55,26.75,4.82,4.82,NULL,NULL,72,-0.317739,1.25736,-0.0215334,9.99,37.6020577,126.8735713,NULL,NULL,1.53,4.74,0,GUIDED,354.912
288,12.193,54,26.92,4.83,4.83,NULL,NULL,71,-0.318691,1.25418,-0.01789,9.99,37.6020708,126.873621,NULL,NULL,1.56,4.74,0,GUIDED,355.922
289,12.193,54,26.83,4.83,4.83,NULL,NULL,71,-0.315587,1.25168,-0.0142281,9.99,37.6020808,126.8736585,NULL,NULL,1.55,4.75,0,GUIDED,357.002
290,12.193,54,26.75,4.82,4.82,NULL,NULL,71,-0.314425,1.2536,-0.0149277,9.99,37.6020905,126.873696,NULL,NULL,1.53,4.76,0,GUIDED,358.137
291,12.193,54,26.67,4.81,4.81,NULL,NULL,71,-0.314065,1.25189,-0.0160772,9.99,37.6021002,126.8737335,NULL,NULL,1.52,4.75,0,GUIDED,359.15
292,12.193,54,26.67,4.79,4.79,NULL,NULL,71,-0.316353,1.25078,-0.0171856,10,37.6021067,126.8737585,NULL,NULL,1.52,4.75,0,GUIDED,360.193
293,12.193,54,26.75,4.79,4.79,NULL,NULL,71,-0.315584,1.25175,-0.0182214,10,37.6021131,126.8737833,NULL,NULL,1.52,4.74,0,GUIDED,361.325
294,12.193,53,26.67,4.79,4.79,NULL,NULL,71,-0.318484,1.25038,-0.0171135,10,37.6021195,126.8738081,NULL,NULL,1.53,4.74,0,GUIDED,362.344
295,12.193,53,26.75,4.79,4.79,NULL,NULL,71,-0.317937,1.25388,-0.0198279,10,37.602126,126.8738331,NULL,NULL,1.54,4.74,0,GUIDED,363.356
296,12.193,53,26.75,4.79,4.79,NULL,NULL,72,-0.315879,1.26057,-0.019019,10,37.6021391,126.8738827,NULL,NULL,1.56,4.75,0,GUIDED,364.378
297,12.193,53,26.67,4.78,4.78,NULL,NULL,71,-0.31557,1.25082,-0.0147594,10,37.6021488,126.87392,NULL,NULL,1.53,4.75,0,GUIDED,365.391
298,12.193,53,26.75,4.77,4.77,NULL,NULL,71,-0.313361,1.2532,-0.0147052,10,37.6021616,126.8739697,NULL,NULL,1.52,4.76,0,GUIDED,366.402
299,12.193,53,26.5,4.75,4.75,NULL,NULL,71,-0.31395,1.24659,-0.0167362,10,37.6021743,126.8740193,NULL,NULL,1.53,4.75,0,GUIDED,367.427
300,12.193,52,26.75,4.75,4.75,NULL,NULL,71,-0.315474,1.25313,-0.0194954,10,37.6021839,126.8740563,NULL,NULL,1.53,4.75,0,GUIDED,368.44
301,12.193,52,26.75,4.75,4.75,NULL,NULL,72,-0.312283,1.25943,-0.0181839,10,37.6021935,126.8740932,NULL,NULL,1.53,4.75,0,GUIDED,369.451
302,12.193,52,26.67,4.73,4.73,NULL,NULL,71,-0.314853,1.25433,-0.0196456,10,37.6022062,126.8741421,NULL,NULL,1.54,4.73,0,GUIDED,370.557
303,12.193,52,26.83,4.73,4.73,NULL,NULL,72,-0.314096,1.25803,-0.0175395,10,37.6022159,126.8741789,NULL,NULL,1.54,4.76,0,GUIDED,371.568
304,12.193,52,26.75,4.73,4.73,NULL,NULL,72,-0.312811,1.25943,-0.0211504,10,37.6022255,126.8742158,NULL,NULL,1.54,4.75,0,GUIDED,372.583
305,12.193,51,26.83,4.73,4.73,NULL,NULL,71,-0.312653,1.25217,-0.013247,10,37.6022415,126.8742769,NULL,NULL,1.52,4.74,0,GUIDED,373.991
306,12.193,51,26.75,4.72,4.72,NULL,NULL,71,-0.314562,1.25585,-0.0172742,10,37.6022478,126.8743014,NULL,NULL,1.52,4.74,0,GUIDED,375.011
307,12.193,51,26.75,4.73,4.73,NULL,NULL,71,-0.314084,1.25094,-0.0146593,10,37.6022572,126.8743382,NULL,NULL,1.52,4.76,0,GUIDED,376.029
308,12.193,51,26.75,4.73,4.73,NULL,NULL,72,-0.311257,1.25975,-0.0213614,10.01,37.6022666,126.874375,NULL,NULL,1.53,4.74,0,GUIDED,377.09
309,12.193,51,26.67,4.71,4.71,NULL,NULL,71,-0.314398,1.25314,-0.0169824,10.01,37.6022762,126.8744116,NULL,NULL,1.54,4.74,-0.01,GUIDED,378.111
310,12.193,51,26.75,4.72,4.72,NULL,NULL,71,-0.313361,1.25278,-0.0147905,10,37.6022856,126.8744482,NULL,NULL,1.52,4.74,-0.01,GUIDED,379.125
311,12.193,50,26.83,4.73,4.73,NULL,NULL,72,-0.314625,1.25945,-0.0188374,10.01,37.6022951,126.874485,NULL,NULL,1.53,4.75,0,GUIDED,380.147
312,12.193,50,26.75,4.74,4.74,NULL,NULL,71,-0.312699,1.25542,-0.0189423,10.01,37.6023014,126.8745096,NULL,NULL,1.54,4.75,-0.01,GUIDED,381.173
313,12.193,50,26.67,4.73,4.73,NULL,NULL,71,-0.314054,1.25016,-0.0149903,10.01,37.6023109,126.8745465,NULL,NULL,1.54,4.76,0,GUIDED,382.19
314,12.193,50,26.83,4.73,4.73,NULL,NULL,72,-0.312591,1.25824,-0.0189165,10.01,37.6023236,126.8745953,NULL,NULL,1.52,4.74,-0.01,GUIDED,383.209
315,12.193,50,26.75,4.72,4.72,NULL,NULL,72,-0.313004,1.25667,-0.0203754,10.01,37.6023331,126.8746319,NULL,NULL,1.54,4.71,-0.01,GUIDED,384.237
316,12.193,50,26.5,4.72,4.72,NULL,NULL,71,-0.315991,1.24781,-0.0155201,10.01,37.6023427,126.8746684,NULL,NULL,1.52,4.72,-0.01,GUIDED,385.269
317,12.193,50,26.75,4.73,4.73,NULL,NULL,71,-0.316941,1.25057,-0.0140598,10.01,37.602349,126.8746928,NULL,NULL,1.51,4.73,-0.01,GUIDED,386.29
318,12.193,49,26.83,4.75,4.75,NULL,NULL,72,-0.316151,1.25956,-0.0205692,10.01,37.6023586,126.8747295,NULL,NULL,1.51,4.76,-0.01,GUIDED,387.308
319,12.193,49,26.75,4.75,4.75,NULL,NULL,71,-0.313728,1.2539,-0.0198204,10.01,37.6023682,126.8747664,NULL,NULL,1.53,4.74,-0.01,GUIDED,388.51
320,12.193,49,26.67,4.74,4.74,NULL,NULL,71,-0.314105,1.25374,-0.0182022,10.01,37.6023747,126.8747909,NULL,NULL,1.54,4.74,-0.01,GUIDED,389.662
321,12.193,49,26.67,4.74,4.74,NULL,NULL,71,-0.314174,1.25626,-0.0159912,10.01,37.6023812,126.8748153,NULL,NULL,1.53,4.74,-0.01,GUIDED,390.762
322,12.193,49,26.75,4.73,4.73,NULL,NULL,71,-0.313445,1.25379,-0.015844,10.01,37.6023909,126.874852,NULL,NULL,1.52,4.73,-0.01,GUIDED,391.897
323,12.193,49,26.75,4.73,4.73,NULL,NULL,71,-0.316244,1.25005,-0.0134001,10.01,37.6024005,126.8748887,NULL,NULL,1.53,4.74,-0.01,GUIDED,392.958
324,12.193,49,26.67,4.74,4.74,NULL,NULL,71,-0.315207,1.25546,-0.0127729,10.01,37.602407,126.8749133,NULL,NULL,1.53,4.76,0,GUIDED,393.976
325,12.193,48,26.58,4.73,4.73,NULL,NULL,72,-0.31181,1.25293,-0.0161687,10.01,37.6024196,126.8749624,NULL,NULL,1.52,4.73,-0.01,GUIDED,394.993
326,12.193,48,26.67,4.71,4.71,NULL,NULL,71,-0.311981,1.25514,-0.0113999,10.01,37.6024292,126.8749991,NULL,NULL,1.52,4.73,-0.01,GUIDED,396.016
327,12.193,48,26.92,4.7,4.7,NULL,NULL,72,-0.314655,1.26322,-0.0163227,10.01,37.6024386,126.8750357,NULL,NULL,1.51,4.73,-0.01,GUIDED,397.033
328,12.193,48,26.5,4.7,4.7,NULL,NULL,71,-0.314424,1.25061,-0.0140783,10.01,37.6024511,126.8750846,NULL,NULL,1.52,4.73,-0.01,GUIDED,398.051
329,12.193,48,26.75,4.71,4.71,NULL,NULL,71,-0.315732,1.2521,-0.0105757,10.01,37.6024573,126.8751091,NULL,NULL,1.52,4.74,-0.01,GUIDED,399.067
330,12.193,48,26.75,4.71,4.71,NULL,NULL,72,-0.315174,1.25781,-0.0164174,10.01,37.6024667,126.8751458,NULL,NULL,1.52,4.76,-0.01,GUIDED,400.088
331,12.193,47,26.75,4.72,4.72,NULL,NULL,72,-0.313098,1.25772,-0.019317,10.01,37.6024761,126.8751829,NULL,NULL,1.54,4.76,-0.01,GUIDED,401.182
332,12.193,47,26.58,4.7,4.7,NULL,NULL,71,-0.310009,1.25415,-0.0144131,10.01,37.6024856,126.8752195,NULL,NULL,1.54,4.74,0,GUIDED,402.212
333,12.193,47,26.75,4.69,4.69,NULL,NULL,71,-0.311403,1.25361,-0.011504,10.01,37.602492,126.8752437,NULL,NULL,1.54,4.73,-0.01,GUIDED,403.243
334,12.193,47,26.58,4.68,4.68,NULL,NULL,71,-0.314546,1.25226,-0.0115562,10,37.6025014,126.87528,NULL,NULL,1.52,4.74,-0.01,GUIDED,404.259
335,12.193,47,26.67,4.69,4.69,NULL,NULL,72,-0.313047,1.25735,-0.0147903,10,37.6025139,126.8753283,NULL,NULL,1.52,4.75,0,GUIDED,405.465
336,12.193,47,26.75,4.69,4.69,NULL,NULL,72,-0.311522,1.25952,-0.0182985,10,37.6025202,126.8753526,NULL,NULL,1.52,4.74,0,GUIDED,406.649
337,12.193,47,26.75,4.69,4.69,NULL,NULL,71,-0.31324,1.25371,-0.0165981,10,37.6025265,126.875377,NULL,NULL,1.54,4.74,0,GUIDED,407.803
338,12.193,46,26.75,4.69,4.69,NULL,NULL,71,-0.311526,1.25524,-0.0120641,10,37.6025362,126.8754133,NULL,NULL,1.54,4.73,0,GUIDED,409.055
339,12.193,46,26.75,4.69,4.69,NULL,NULL,72,-0.314315,1.26043,-0.013494,10,37.6025425,126.8754375,NULL,NULL,1.54,4.73,0,GUIDED,410.083
340,12.193,46,26.5,4.7,4.7,NULL,NULL,71,-0.311984,1.25369,-0.0122413,10,37.602552,126.8754738,NULL,NULL,1.53,4.75,0,GUIDED,411.128
341,12.193,46,26.67,4.69,4.69,NULL,NULL,71,-0.312857,1.25606,-0.0122583,10,37.6025614,126.87551,NULL,NULL,1.51,4.74,0,GUIDED,412.181
342,12.193,46,26.75,4.69,4.69,NULL,NULL,72,-0.312093,1.2591,-0.0179254,9.99,37.602574,126.8755584,NULL,NULL,1.52,4.74,0,GUIDED,413.201
343,12.193,46,26.75,4.7,4.7,NULL,NULL,72,-0.312216,1.25834,-0.0130715,9.99,37.6025835,126.8755948,NULL,NULL,1.54,4.74,0,GUIDED,414.22
344,12.193,45,26.58,4.69,4.69,NULL,NULL,71,-0.312626,1.25197,-0.00852175,10,37.6025962,126.8756431,NULL,NULL,1.51,4.72,0,GUIDED,415.234
345,12.193,45,26.67,4.69,4.69,NULL,NULL,71,-0.313508,1.24875,-0.0059475,9.99,37.6026057,126.8756794,NULL,NULL,1.49,4.73,0,GUIDED,416.321
346,12.193,45,26.67,4.69,4.69,NULL,NULL,71,-0.314139,1.25179,-0.00783295,9.99,37.6026119,126.8757036,NULL,NULL,1.49,4.74,0,GUIDED,417.336
347,12.193,45,26.67,4.7,4.7,NULL,NULL,71,-0.314343,1.25224,-0.0108235,9.99,37.6026213,126.8757402,NULL,NULL,1.5,4.75,0,GUIDED,418.349
348,12.193,45,26.75,4.72,4.72,NULL,NULL,71,-0.313936,1.25353,-0.0127547,9.99,37.6026339,126.8757891,NULL,NULL,1.51,4.75,0,GUIDED,419.367
349,12.193,45,26.75,4.71,4.71,NULL,NULL,72,-0.311596,1.25982,-0.0146546,9.99,37.6026434,126.8758257,NULL,NULL,1.52,4.72,0,GUIDED,420.391
350,12.193,44,26.5,4.7,4.7,NULL,NULL,71,-0.315622,1.245,-0.00536915,9.99,37.6026529,126.8758623,NULL,NULL,1.51,4.71,0,GUIDED,421.436
351,12.193,44,26.75,4.72,4.72,NULL,NULL,72,-0.317058,1.26021,-0.0121047,9.99,37.6026624,126.8758987,NULL,NULL,1.49,4.74,0,GUIDED,422.478
352,12.193,44,26.67,4.73,4.73,NULL,NULL,71,-0.315035,1.25261,-0.0118513,9.99,37.602672,126.8759354,NULL,NULL,1.52,4.73,0,GUIDED,423.52
353,12.193,44,26.75,4.73,4.73,NULL,NULL,72,-0.312893,1.25876,-0.0091229,9.99,37.6026816,126.8759721,NULL,NULL,1.51,4.74,0.01,GUIDED,425.022
354,12.193,44,26.75,4.73,4.73,NULL,NULL,72,-0.311031,1.26009,-0.011463,9.99,37.6026879,126.8759965,NULL,NULL,1.51,4.73,0,GUIDED,426.071
355,12.193,44,26.5,4.71,4.71,NULL,NULL,71,-0.313241,1.24742,-0.00736543,9.99,37.6026944,126.876021,NULL,NULL,1.52,4.71,0,GUIDED,427.086
356,12.193,44,26.92,4.71,4.71,NULL,NULL,71,-0.316404,1.25538,-0.00367981,9.99,37.6027039,126.8760576,NULL,NULL,1.5,4.73,0,GUIDED,428.109
357,12.193,43,26.75,4.73,4.73,NULL,NULL,72,-0.314645,1.25763,-0.0118152,9.99,37.6027166,126.8761065,NULL,NULL,1.52,4.74,0,GUIDED,429.129
358,12.193,43,26.75,4.73,4.73,NULL,NULL,72,-0.312975,1.25814,-0.00884039,9.99,37.6027293,126.8761554,NULL,NULL,1.52,4.74,0,GUIDED,430.143
359,12.193,43,26.92,4.71,4.71,NULL,NULL,72,-0.313212,1.25853,-0.00665962,9.99,37.602742,126.8762043,NULL,NULL,1.51,4.74,0,GUIDED,431.158
360,12.193,43,26.75,4.71,4.71,NULL,NULL,72,-0.311644,1.25836,-0.00553754,9.99,37.6027514,126.876241,NULL,NULL,1.5,4.73,0,GUIDED,432.176
361,12.193,43,26.75,4.71,4.71,NULL,NULL,71,-0.316294,1.25477,-0.00845312,9.99,37.6027638,126.8762899,NULL,NULL,1.51,4.73,0,GUIDED,433.197
362,12.193,42,26.75,4.73,4.73,NULL,NULL,71,-0.315932,1.25085,-0.00504724,9.99,37.6027732,126.8763266,NULL,NULL,1.51,4.75,0,GUIDED,434.219
363,12.193,42,26.92,4.73,4.73,NULL,NULL,72,-0.313618,1.25783,-0.00840701,10,37.6027827,126.8763634,NULL,NULL,1.53,4.75,0,GUIDED,435.232
364,12.193,42,26.75,4.73,4.73,NULL,NULL,71,-0.311403,1.25376,-0.00232045,10,37.6027953,126.8764123,NULL,NULL,1.52,4.73,0,GUIDED,436.247
365,12.193,42,26.75,4.72,4.72,NULL,NULL,71,-0.314737,1.24855,-0.00309953,10,37.6028047,126.8764489,NULL,NULL,1.52,4.73,0,GUIDED,437.305
366,12.193,42,26.75,4.74,4.74,NULL,NULL,72,-0.315522,1.25773,-0.00828146,10,37.6028142,126.8764856,NULL,NULL,1.54,4.74,0,GUIDED,438.831
367,12.193,41,26.75,4.75,4.75,NULL,NULL,71,-0.313553,1.25605,-0.00385397,10,37.6028237,126.8765223,NULL,NULL,1.54,4.74,0,GUIDED,439.856
368,12.193,41,26.67,4.74,4.74,NULL,NULL,71,-0.313061,1.25365,-0.00187508,10,37.60283,126.8765467,NULL,NULL,1.53,4.73,0,GUIDED,441.042
369,12.193,41,26.75,4.73,4.73,NULL,NULL,71,-0.31606,1.25171,0.000585795,10,37.6028363,126.8765712,NULL,NULL,1.53,4.73,-0.01,GUIDED,442.111
370,12.193,41,26.83,4.74,4.74,NULL,NULL,71,-0.314847,1.2559,-0.0025304,10,37.6028425,126.8765956,NULL,NULL,1.52,4.75,0,GUIDED,443.127
371,12.193,41,26.75,4.75,4.75,NULL,NULL,71,-0.316127,1.2525,-0.00635303,10,37.6028519,126.8766323,NULL,NULL,1.54,4.76,0,GUIDED,444.141
372,12.193,41,26.75,4.76,4.76,NULL,NULL,71,-0.314962,1.25438,-0.00573111,10,37.6028614,126.8766695,NULL,NULL,1.55,4.74,0,GUIDED,445.155
373,12.193,41,26.67,4.75,4.75,NULL,NULL,72,-0.314468,1.25903,-0.00793444,10.01,37.6028741,126.8767189,NULL,NULL,1.54,4.73,-0.01,GUIDED,446.173
374,12.193,40,26.75,4.74,4.74,NULL,NULL,71,-0.313826,1.25238,-0.00451865,10.01,37.6028837,126.8767556,NULL,NULL,1.54,4.72,-0.01,GUIDED,447.187
375,12.193,40,26.67,4.74,4.74,NULL,NULL,71,-0.314663,1.25285,-0.00239828,10.01,37.6028963,126.8768045,NULL,NULL,1.52,4.74,-0.01,GUIDED,448.201
376,12.193,40,26.92,4.74,4.74,NULL,NULL,72,-0.314854,1.25874,-0.0106788,10.01,37.6029059,126.8768412,NULL,NULL,1.52,4.73,-0.01,GUIDED,449.219
377,12.193,40,26.67,4.76,4.76,NULL,NULL,71,-0.315072,1.25055,-0.00302758,10.01,37.6029188,126.8768901,NULL,NULL,1.56,4.74,-0.01,GUIDED,450.235
378,12.193,40,26.92,4.76,4.76,NULL,NULL,72,-0.314946,1.25725,-0.00198597,10.01,37.6029286,126.8769268,NULL,NULL,1.52,4.74,-0.01,GUIDED,451.253
379,12.193,39,26.67,4.77,4.77,NULL,NULL,72,-0.313592,1.25819,-0.00786265,10.01,37.6029415,126.8769762,NULL,NULL,1.53,4.75,0,GUIDED,452.269
380,12.193,39,26.67,4.76,4.76,NULL,NULL,71,-0.315135,1.25091,-0.00522074,10.01,37.6029513,126.8770133,NULL,NULL,1.54,4.74,-0.01,GUIDED,453.289
381,12.193,39,26.67,4.75,4.75,NULL,NULL,71,-0.31332,1.25402,-0.00110012,10.01,37.6029611,126.87705,NULL,NULL,1.52,4.74,-0.01,GUIDED,454.304
382,12.193,39,26.83,4.74,4.74,NULL,NULL,72,-0.314513,1.25934,-0.00433341,10.01,37.6029708,126.8770867,NULL,NULL,1.52,4.73,-0.01,GUIDED,455.319
383,12.193,39,26.75,4.75,4.75,NULL,NULL,71,-0.317176,1.2561,0.00151588,10.01,37.6029804,126.8771234,NULL,NULL,1.51,4.73,0,GUIDED,456.339
384,12.193,39,26.67,4.76,4.76,NULL,NULL,72,-0.314775,1.25609,-0.000789581,10.01,37.60299,126.8771602,NULL,NULL,1.5,4.74,0,GUIDED,457.366
385,12.193,39,26.67,4.76,4.76,NULL,NULL,71,-0.315009,1.25185,-0.000317733,10.01,37.6029964,126.8771849,NULL,NULL,1.5,4.72,-0.01,GUIDED,458.383
386,12.193,38,26.75,4.75,4.75,NULL,NULL,71,-0.315696,1.25471,0.0015192,10,37.603006,126.877222,NULL,NULL,1.5,4.73,-0.01,GUIDED,459.398
387,12.193,38,26.67,4.76,4.76,NULL,NULL,71,-0.314702,1.25236,-0.000926982,10,37.6030155,126.8772591,NULL,NULL,1.5,4.73,0,GUIDED,460.413
388,12.193,38,26.67,4.76,4.76,NULL,NULL,71,-0.3161,1.24982,0.00205627,10,37.6030251,126.8772962,NULL,NULL,1.5,4.72,0,GUIDED,461.432
389,12.193,38,26.67,4.77,4.77,NULL,NULL,71,-0.315767,1.24977,0.0050809,10,37.6030346,126.8773332,NULL,NULL,1.49,4.74,0,GUIDED,462.449
390,12.193,38,26.83,4.78,4.78,NULL,NULL,72,-0.316804,1.25787,-0.00143582,10,37.603044,126.8773703,NULL,NULL,1.49,4.73,0,GUIDED,463.474
391,12.193,38,26.58,4.79,4.79,NULL,NULL,71,-0.318548,1.2458,0.00316867,10,37.6030536,126.8774074,NULL,NULL,1.53,4.74,0,GUIDED,464.498
392,12.193,37,26.75,4.8,4.8,NULL,NULL,71,-0.314767,1.24887,0.0070486,10,37.60306,126.8774321,NULL,NULL,1.52,4.75,0,GUIDED,465.56
393,12.193,37,26.75,4.78,4.78,NULL,NULL,71,-0.317208,1.2561,-0.00179472,10,37.6030726,126.8774816,NULL,NULL,1.51,4.73,0,GUIDED,466.577
394,12.193,37,26.75,4.79,4.79,NULL,NULL,71,-0.317608,1.25224,0.000938069,10,37.6030822,126.8775188,NULL,NULL,1.53,4.72,0,GUIDED,467.595
395,12.193,37,27,4.8,4.8,NULL,NULL,71,-0.319904,1.25536,0.0002246,10,37.6030886,126.8775435,NULL,NULL,1.54,4.75,0,GUIDED,468.627
396,12.193,37,26.83,4.81,4.81,NULL,NULL,72,-0.316929,1.25765,0.000555367,10,37.6030981,126.8775806,NULL,NULL,1.52,4.76,0,GUIDED,469.643
397,12.193,37,26.75,4.81,4.81,NULL,NULL,71,-0.314263,1.25104,0.000874339,10,37.6031077,126.8776183,NULL,NULL,1.52,4.76,0,GUIDED,470.669
398,12.193,36,26.75,4.8,4.8,NULL,NULL,72,-0.314031,1.25772,-0.00328613,10,37.6031173,126.8776556,NULL,NULL,1.52,4.75,0,GUIDED,471.689
399,12.193,36,26.75,4.79,4.79,NULL,NULL,71,-0.316962,1.25398,-0.00192117,10,37.6031237,126.8776803,NULL,NULL,1.53,4.73,0,GUIDED,472.708
400,12.193,36,26.83,4.8,4.8,NULL,NULL,72,-0.320001,1.25865,-0.00353125,9.99,37.6031334,126.8777174,NULL,NULL,1.53,4.74,0,GUIDED,473.886
401,12.193,36,26.75,4.82,4.82,NULL,NULL,71,-0.319296,1.25183,-0.000676152,9.99,37.6031399,126.8777422,NULL,NULL,1.53,4.74,0,GUIDED,474.905
402,12.193,36,27,4.83,4.83,NULL,NULL,72,-0.316878,1.26108,-0.00119084,10,37.603153,126.8777923,NULL,NULL,1.52,4.76,0,GUIDED,475.919
403,12.193,36,26.75,4.82,4.82,NULL,NULL,71,-0.314936,1.25389,-0.00316674,10,37.6031628,126.8778298,NULL,NULL,1.53,4.75,0,GUIDED,476.935
404,12.193,36,26.67,4.8,4.8,NULL,NULL,71,-0.314423,1.2531,8.07E-05,10,37.6031727,126.877867,NULL,NULL,1.53,4.73,0,GUIDED,477.947
405,12.193,35,26.67,4.79,4.79,NULL,NULL,72,-0.314455,1.25754,0.00316205,10,37.6031858,126.8779165,NULL,NULL,1.51,4.74,0,GUIDED,478.963
406,12.193,35,26.75,4.78,4.78,NULL,NULL,72,-0.314506,1.25862,-0.00415592,10,37.6031954,126.8779535,NULL,NULL,1.5,4.72,0,GUIDED,479.976
407,12.193,35,26.75,4.79,4.79,NULL,NULL,72,-0.315816,1.25685,0.00236722,9.99,37.6032084,126.8780029,NULL,NULL,1.52,4.72,0,GUIDED,481.065
408,12.193,35,26.67,4.79,4.79,NULL,NULL,71,-0.316191,1.24753,0.00725418,9.99,37.6032213,126.8780524,NULL,NULL,1.5,4.73,0,GUIDED,482.077
409,12.193,35,26.92,4.8,4.8,NULL,NULL,72,-0.319963,1.26072,-0.000226557,9.99,37.6032309,126.8780898,NULL,NULL,1.5,4.75,0,GUIDED,483.09
410,12.193,34,26.75,4.82,4.82,NULL,NULL,72,-0.313592,1.25695,0.000553852,9.99,37.6032437,126.87814,NULL,NULL,1.52,4.74,0.01,GUIDED,484.103
411,12.193,34,26.75,4.8,4.8,NULL,NULL,72,-0.315083,1.26097,-0.000114415,9.99,37.6032533,126.8781772,NULL,NULL,1.51,4.73,0,GUIDED,485.113
412,12.193,34,26.58,4.8,4.8,NULL,NULL,71,-0.317445,1.24539,0.00834926,9.99,37.6032629,126.8782147,NULL,NULL,1.51,4.73,0,GUIDED,486.136
413,12.193,34,26.92,4.82,4.82,NULL,NULL,71,-0.319263,1.25488,0.00340419,9.99,37.6032724,126.8782521,NULL,NULL,1.5,4.75,0,GUIDED,487.165
414,12.193,34,26.67,4.83,4.83,NULL,NULL,71,-0.315263,1.25351,-0.00278234,9.99,37.6032819,126.8782896,NULL,NULL,1.51,4.73,0.01,GUIDED,488.313
415,12.193,34,26.75,4.82,4.82,NULL,NULL,71,-0.31992,1.25259,0.000294032,9.99,37.6032915,126.8783271,NULL,NULL,1.53,4.73,0.01,GUIDED,489.352
416,12.193,33,26.75,4.84,4.84,NULL,NULL,71,-0.317904,1.24892,0.00586146,9.98,37.6033012,126.8783645,NULL,NULL,1.53,4.75,0,GUIDED,490.376
417,12.193,33,26.75,4.84,4.84,NULL,NULL,71,-0.31606,1.25165,0.00285186,9.98,37.6033141,126.8784145,NULL,NULL,1.52,4.74,0,GUIDED,491.389
418,12.193,33,26.67,4.83,4.83,NULL,NULL,71,-0.316985,1.25423,-0.00373566,9.98,37.603327,126.8784644,NULL,NULL,1.52,4.72,0.01,GUIDED,492.4
419,12.193,33,26.92,4.84,4.84,NULL,NULL,71,-0.318459,1.25349,0.00157957,9.98,37.60334,126.8785144,NULL,NULL,1.53,4.73,0,GUIDED,493.412
420,12.193,33,26.75,4.85,4.85,NULL,NULL,71,-0.317992,1.25578,-0.0011538,9.98,37.6033531,126.8785644,NULL,NULL,1.53,4.73,0.01,GUIDED,494.434
421,12.193,32,27,4.86,4.86,NULL,NULL,72,-0.320372,1.25967,-0.000507005,9.98,37.603363,126.8786018,NULL,NULL,1.55,4.73,0,GUIDED,495.445
422,12.193,32,26.75,4.88,4.88,NULL,NULL,71,-0.320133,1.25042,0.00294707,9.98,37.6033761,126.8786518,NULL,NULL,1.52,4.74,0.01,GUIDED,496.54
423,12.193,32,26.75,4.89,4.89,NULL,NULL,72,-0.317033,1.25824,-0.00246219,9.99,37.6033891,126.8787021,NULL,NULL,1.52,4.74,0.01,GUIDED,497.556
424,12.193,32,26.83,4.88,4.88,NULL,NULL,71,-0.321198,1.2565,-0.000843185,9.99,37.603399,126.87874,NULL,NULL,1.53,4.74,0,GUIDED,498.573
425,12.193,32,26.75,4.88,4.88,NULL,NULL,71,-0.315135,1.25285,0.00321438,9.99,37.6034122,126.8787905,NULL,NULL,1.52,4.74,0,GUIDED,499.586
426,12.193,31,26.83,4.87,4.87,NULL,NULL,71,-0.317453,1.25257,0.00446991,9.99,37.603422,126.8788284,NULL,NULL,1.5,4.74,0,GUIDED,500.601
427,12.193,31,26.92,4.88,4.88,NULL,NULL,71,-0.319405,1.25287,0.000228137,9.99,37.6034351,126.8788789,NULL,NULL,1.52,4.75,0,GUIDED,501.68
428,12.193,31,26.83,4.89,4.89,NULL,NULL,72,-0.316615,1.25748,-0.00101545,9.99,37.6034449,126.8789167,NULL,NULL,1.51,4.73,0,GUIDED,502.868
429,12.193,31,26.92,4.88,4.88,NULL,NULL,71,-0.318884,1.25579,-0.000962202,9.99,37.6034514,126.878942,NULL,NULL,1.51,4.73,0,GUIDED,503.885
430,12.193,31,27,4.9,4.9,NULL,NULL,71,-0.321334,1.25332,0.000224083,9.99,37.6034613,126.8789798,NULL,NULL,1.52,4.74,0,GUIDED,504.916
431,12.193,31,27.08,4.91,4.91,NULL,NULL,72,-0.317543,1.26135,-0.000607589,10,37.6034746,126.8790303,NULL,NULL,1.51,4.74,0,GUIDED,505.926
432,12.193,30,26.83,4.9,4.9,NULL,NULL,71,-0.317983,1.25535,-0.000160542,10,37.6034845,126.8790682,NULL,NULL,1.51,4.73,0,GUIDED,506.936
433,12.193,30,26.83,4.91,4.91,NULL,NULL,71,-0.317321,1.25638,0.00171063,10,37.6034977,126.8791187,NULL,NULL,1.5,4.74,0,GUIDED,507.949
434,12.193,30,26.5,4.9,4.9,NULL,NULL,71,-0.317526,1.24611,0.00519093,10,37.6035109,126.8791692,NULL,NULL,1.49,4.75,0,GUIDED,508.962
435,12.193,30,26.83,4.89,4.89,NULL,NULL,71,-0.317219,1.25177,0.00336243,10,37.6035208,126.8792071,NULL,NULL,1.48,4.76,-0.01,GUIDED,509.973
