id,voltage,battery_remaining,current_drawn,ground_speed,air_speed,nav_roll,nav_pitch,nav_bearing,pitch,yaw,roll,alt,lat,lon,payload,distance_frm_home,velocity_x,velocity_y,velocity_z,mode,flight_time
2,12.242,98,24.59,0.17,0.17,NULL,NULL,7,-0.0291553,0.13753,0.078338,9.87,37.5994471,126.8635027,NULL,NULL,-0.02,0.22,0.09,GUIDED,37.2129
3,12.242,97,25.42,0.69,0.69,NULL,NULL,36,-0.106585,0.628739,0.100814,9.93,37.5994475,126.8635071,NULL,NULL,0.12,0.83,0.05,GUIDED,38.2238
4,12.193,97,28.16,1.18,1.18,NULL,NULL,65,-0.146804,1.13696,0.0196477,9.97,37.5994496,126.8635202,NULL,NULL,0.36,1.41,0.02,GUIDED,39.2348
5,12.242,97,25.67,1.82,1.82,NULL,NULL,72,-0.218302,1.2655,-0.0214049,9.98,37.5994531,126.8635342,NULL,NULL,0.72,1.87,0.01,GUIDED,40.2458
6,12.242,97,26.25,2.49,2.49,NULL,NULL,71,-0.263651,1.24465,0.0164312,9.97,37.5994584,126.8635526,NULL,NULL,0.89,2.48,0,GUIDED,41.2557
7,12.193,97,26.67,3.04,3.04,NULL,NULL,72,-0.304721,1.26181,-0.000267867,9.97,37.5994646,126.8635762,NULL,NULL,1.05,3.1,0.01,GUIDED,42.2647
8,12.193,96,26.92,3.95,3.95,NULL,NULL,71,-0.36163,1.24927,0.006153,9.97,37.5994748,126.8636156,NULL,NULL,1.35,3.94,0.01,GUIDED,43.2737
9,12.193,96,27.5,4.71,4.71,NULL,NULL,71,-0.392324,1.25542,0.00781319,9.96,37.5994841,126.8636513,NULL,NULL,1.56,4.58,0.01,GUIDED,44.2856
10,12.193,96,27.75,5.22,5.22,NULL,NULL,72,-0.409774,1.26017,0.00281588,9.96,37.5994946,126.863692,NULL,NULL,1.73,5.11,0.02,GUIDED,45.2946
11,12.193,96,27.91,5.79,5.79,NULL,NULL,71,-0.431366,1.2538,0.00567305,9.96,37.5995061,126.8637366,NULL,NULL,1.9,5.55,0.02,GUIDED,46.3046
12,12.193,96,28.41,6.06,6.06,NULL,NULL,71,-0.446146,1.25221,0.0110951,9.96,37.5995186,126.8637847,NULL,NULL,2.03,5.98,0.02,GUIDED,47.3155
13,12.193,96,28.58,6.56,6.56,NULL,NULL,71,-0.469196,1.25439,0.0121853,9.96,37.5995318,126.8638364,NULL,NULL,2.14,6.38,0.03,GUIDED,48.3295
14,12.193,95,28.66,7.1,7.1,NULL,NULL,71,-0.482116,1.25489,0.00898846,9.95,37.5995456,126.8638912,NULL,NULL,2.24,6.73,0.03,GUIDED,49.3405
15,12.193,95,28.99,7.38,7.38,NULL,NULL,71,-0.495968,1.24919,0.0102871,9.95,37.5995602,126.8639487,NULL,NULL,2.35,7.03,0.03,GUIDED,50.3494
16,12.193,95,29.24,7.73,7.73,NULL,NULL,71,-0.506036,1.25328,0.0101062,9.95,37.5995754,126.8640086,NULL,NULL,2.42,7.33,0.03,GUIDED,51.3594
17,12.193,95,29.49,8.09,8.09,NULL,NULL,72,-0.517969,1.25794,0.0020015,9.95,37.5995964,126.8640918,NULL,NULL,2.52,7.63,0.03,GUIDED,52.3684
18,12.193,95,29.82,8.29,8.29,NULL,NULL,72,-0.526955,1.26069,-0.00401241,9.95,37.599613,126.8641562,NULL,NULL,2.62,7.84,0.03,GUIDED,53.3784
19,12.193,94,29.49,8.56,8.56,NULL,NULL,71,-0.529498,1.24976,0.00957259,9.95,37.5996361,126.8642443,NULL,NULL,2.7,8.06,0.03,GUIDED,54.3883
20,12.193,94,29.82,8.74,8.74,NULL,NULL,72,-0.540649,1.26096,-0.0017853,9.96,37.5996596,126.8643344,NULL,NULL,2.7,8.23,0.03,GUIDED,55.3983
21,12.143,94,30.07,8.89,8.89,NULL,NULL,72,-0.546463,1.25696,0.00055856,9.96,37.5996778,126.864403,NULL,NULL,2.76,8.36,0.02,GUIDED,56.4083
22,12.143,94,30.07,9.01,9.01,NULL,NULL,71,-0.550586,1.25011,0.00733895,9.96,37.5996963,126.8644728,NULL,NULL,2.79,8.5,0.03,GUIDED,57.4202
23,12.143,94,30.07,9.17,9.17,NULL,NULL,72,-0.551848,1.25981,-0.00164341,9.96,37.5997214,126.8645673,NULL,NULL,2.82,8.63,0.03,GUIDED,58.4302
24,12.143,93,30.07,9.24,9.24,NULL,NULL,71,-0.556154,1.25249,0.00224704,9.97,37.5997405,126.8646388,NULL,NULL,2.83,8.7,0.02,GUIDED,59.4392
25,12.143,93,30.32,9.33,9.33,NULL,NULL,72,-0.556825,1.25865,-0.000419481,9.97,37.5997662,126.864735,NULL,NULL,2.85,8.81,0.02,GUIDED,60.4511
26,12.143,93,30.32,9.38,9.38,NULL,NULL,72,-0.559523,1.2608,-0.00312045,9.97,37.5997858,126.8648076,NULL,NULL,2.86,8.85,0.02,GUIDED,61.4601
27,12.143,93,30.32,9.44,9.44,NULL,NULL,72,-0.563945,1.25967,-0.00393068,9.98,37.5998054,126.8648805,NULL,NULL,2.89,8.91,0.01,GUIDED,62.4721
28,12.143,93,30.24,9.5,9.5,NULL,NULL,71,-0.567126,1.24474,0.0132992,9.98,37.5998253,126.8649539,NULL,NULL,2.88,8.99,0.01,GUIDED,63.482
29,12.143,92,30.32,9.55,9.55,NULL,NULL,71,-0.565231,1.25349,0.00823132,9.98,37.599845,126.8650279,NULL,NULL,2.85,9.03,0.01,GUIDED,64.494
30,12.143,92,30.32,9.57,9.57,NULL,NULL,71,-0.569332,1.25247,0.00242674,9.99,37.5998648,126.865102,NULL,NULL,2.88,9.04,0,GUIDED,65.505
31,12.143,92,30.57,9.62,9.62,NULL,NULL,71,-0.573885,1.2564,0.00116677,9.98,37.5998848,126.8651764,NULL,NULL,2.9,9.09,0,GUIDED,66.5159
32,12.143,92,30.57,9.7,9.7,NULL,NULL,72,-0.572469,1.25949,0.00450615,9.99,37.5999116,126.8652762,NULL,NULL,2.9,9.15,0,GUIDED,67.5259
33,12.143,92,30.32,9.74,9.74,NULL,NULL,71,-0.573074,1.24696,0.0123572,9.99,37.5999382,126.8653767,NULL,NULL,2.89,9.19,0,GUIDED,68.5359
34,12.143,91,30.57,9.75,9.75,NULL,NULL,71,-0.573685,1.25251,0.0101342,9.99,37.5999646,126.8654776,NULL,NULL,2.85,9.22,0,GUIDED,69.5468
35,12.143,91,30.57,9.76,9.76,NULL,NULL,72,-0.576257,1.25769,-0.00318681,10,37.5999842,126.8655534,NULL,NULL,2.86,9.25,0,GUIDED,70.5588
36,12.143,91,30.57,9.78,9.78,NULL,NULL,71,-0.577016,1.24907,0.0070306,10,37.6000041,126.8656294,NULL,NULL,2.88,9.27,0,GUIDED,71.5708
37,12.143,91,30.65,9.82,9.82,NULL,NULL,71,-0.577627,1.25541,0.00293077,10,37.600024,126.8657055,NULL,NULL,2.89,9.3,0,GUIDED,72.5807
38,12.143,91,30.41,9.84,9.84,NULL,NULL,71,-0.576218,1.25131,0.00652635,10.01,37.6000507,126.8658072,NULL,NULL,2.89,9.3,0,GUIDED,73.5907
39,12.143,90,30.41,9.84,9.84,NULL,NULL,71,-0.578776,1.25508,0.00443647,10.01,37.6000707,126.8658835,NULL,NULL,2.87,9.31,-0.01,GUIDED,74.6047
40,12.143,90,30.49,9.85,9.85,NULL,NULL,71,-0.57997,1.24911,0.00826402,10.01,37.6000972,126.8659855,NULL,NULL,2.89,9.35,-0.01,GUIDED,75.6147
41,12.143,90,30.49,9.87,9.87,NULL,NULL,72,-0.579746,1.25697,0.000651982,10.01,37.6001238,126.8660877,NULL,NULL,2.89,9.36,-0.01,GUIDED,76.6266
42,12.143,90,30.49,9.87,9.87,NULL,NULL,71,-0.577109,1.25627,-0.000112341,10.01,37.6001371,126.8661389,NULL,NULL,2.92,9.36,-0.01,GUIDED,77.6366
43,12.143,90,30.65,9.86,9.86,NULL,NULL,72,-0.578856,1.26253,-0.000480845,10.01,37.6001571,126.8662155,NULL,NULL,2.92,9.35,-0.01,GUIDED,78.6466
44,12.143,89,30.57,9.87,9.87,NULL,NULL,72,-0.577278,1.26057,-0.00230068,10.01,37.6001704,126.8662666,NULL,NULL,2.93,9.35,-0.01,GUIDED,79.6585
45,12.143,89,30.41,9.86,9.86,NULL,NULL,71,-0.582255,1.2497,0.00924364,10.02,37.6001903,126.8663431,NULL,NULL,2.91,9.34,-0.02,GUIDED,80.6705
46,12.143,89,30.57,9.88,9.88,NULL,NULL,71,-0.584775,1.24809,0.0137582,10.02,37.6002099,126.8664197,NULL,NULL,2.88,9.39,-0.02,GUIDED,81.6805
47,12.143,89,30.49,9.93,9.93,NULL,NULL,71,-0.584357,1.25574,-0.00203359,10.01,37.600236,126.8665226,NULL,NULL,2.89,9.41,-0.01,GUIDED,82.6914
48,12.143,89,30.65,9.94,9.94,NULL,NULL,72,-0.584263,1.25757,-0.000997094,10.01,37.6002559,126.8665997,NULL,NULL,2.93,9.41,-0.01,GUIDED,83.7014
49,12.143,88,30.57,9.95,9.95,NULL,NULL,71,-0.580837,1.25526,-0.00101718,10.01,37.6002758,126.866677,NULL,NULL,2.95,9.42,-0.01,GUIDED,84.7144
50,12.143,88,30.49,9.94,9.94,NULL,NULL,71,-0.579548,1.25343,0.00415769,10.01,37.6002892,126.8667284,NULL,NULL,2.94,9.4,-0.01,GUIDED,85.7253
51,12.143,88,30.65,9.94,9.94,NULL,NULL,71,-0.586761,1.256,0.00134653,10.01,37.6003158,126.8668311,NULL,NULL,2.93,9.4,-0.01,GUIDED,86.7373
52,12.143,88,30.41,9.96,9.96,NULL,NULL,71,-0.582639,1.25023,0.00787956,10.01,37.6003358,126.8669084,NULL,NULL,2.93,9.42,-0.01,GUIDED,87.7483
53,12.143,88,30.82,9.97,9.97,NULL,NULL,71,-0.586583,1.2537,0.00327222,10,37.6003622,126.8670117,NULL,NULL,2.93,9.44,-0.01,GUIDED,88.7602
54,12.143,87,30.57,9.99,9.99,NULL,NULL,72,-0.583302,1.25843,-0.00421438,10.01,37.6003822,126.8670893,NULL,NULL,2.96,9.45,-0.01,GUIDED,89.7722
55,12.143,87,30.65,9.97,9.97,NULL,NULL,72,-0.581908,1.25989,-0.000833461,10.01,37.6004156,126.8672186,NULL,NULL,2.95,9.42,-0.01,GUIDED,90.7842
56,12.143,87,30.65,9.96,9.96,NULL,NULL,72,-0.583731,1.25824,-0.000998704,10,37.6004422,126.8673217,NULL,NULL,2.96,9.4,0,GUIDED,91.7952
57,12.143,87,30.65,9.97,9.97,NULL,NULL,71,-0.586983,1.25498,0.00246223,10,37.6004622,126.867399,NULL,NULL,2.96,9.41,0,GUIDED,92.8041
58,12.143,87,30.65,10,10,NULL,NULL,71,-0.586011,1.25207,0.00800657,10,37.6004822,126.8674766,NULL,NULL,2.95,9.44,0,GUIDED,93.8151
59,12.143,86,30.65,10,10,NULL,NULL,72,-0.583642,1.26136,-0.00394733,10,37.6005021,126.8675544,NULL,NULL,2.94,9.44,0,GUIDED,94.8271
60,12.143,86,30.41,9.99,9.99,NULL,NULL,71,-0.583474,1.25323,-0.0037771,10,37.600522,126.867632,NULL,NULL,2.98,9.42,0,GUIDED,95.836
61,12.143,86,30.41,9.98,9.98,NULL,NULL,71,-0.586511,1.24789,0.00824787,10,37.6005489,126.8677352,NULL,NULL,2.96,9.42,0,GUIDED,96.857
62,12.143,86,30.65,9.98,9.98,NULL,NULL,72,-0.585711,1.25941,-0.00331909,10,37.6005755,126.8678387,NULL,NULL,2.95,9.44,0,GUIDED,97.868
63,12.143,85,30.41,9.99,9.99,NULL,NULL,71,-0.583658,1.24888,0.00237167,10,37.6005956,126.8679163,NULL,NULL,2.99,9.44,0,GUIDED,98.8789
64,12.143,85,30.74,9.97,9.97,NULL,NULL,71,-0.583393,1.25374,0.0044731,9.99,37.6006223,126.8680197,NULL,NULL,2.97,9.44,0,GUIDED,99.8909
65,12.143,85,30.49,9.99,9.99,NULL,NULL,71,-0.586432,1.24872,0.00365273,9.99,37.600649,126.8681231,NULL,NULL,2.98,9.45,0,GUIDED,100.906
66,12.143,85,30.57,9.99,9.99,NULL,NULL,71,-0.58279,1.24823,0.0070174,9.99,37.6006624,126.8681749,NULL,NULL,2.97,9.45,0,GUIDED,101.921
67,12.143,85,30.82,9.98,9.98,NULL,NULL,72,-0.585377,1.26276,-0.0112311,9.99,37.6006891,126.8682782,NULL,NULL,2.99,9.43,0,GUIDED,102.933
68,12.143,84,30.32,10,10,NULL,NULL,71,-0.584144,1.24134,0.0160394,9.99,37.6007161,126.8683816,NULL,NULL,3,9.44,0,GUIDED,103.948
69,12.143,84,30.65,9.99,9.99,NULL,NULL,71,-0.581815,1.25607,0.00576337,9.99,37.6007295,126.8684333,NULL,NULL,2.96,9.43,0,GUIDED,104.96
70,12.143,84,30.57,9.95,9.95,NULL,NULL,72,-0.585066,1.26112,-0.00783484,9.99,37.6007561,126.8685365,NULL,NULL,3,9.41,0,GUIDED,105.972
71,12.143,84,30.41,9.97,9.97,NULL,NULL,71,-0.587154,1.24432,0.00954358,9.99,37.6007763,126.8686138,NULL,NULL,3.01,9.43,0,GUIDED,106.983
72,12.143,84,30.65,9.99,9.99,NULL,NULL,72,-0.584568,1.2576,0.00288612,9.99,37.6007964,126.8686914,NULL,NULL,2.96,9.45,0,GUIDED,107.992
73,12.143,83,30.57,9.99,9.99,NULL,NULL,71,-0.584064,1.25375,-0.00311473,9.99,37.6008163,126.868769,NULL,NULL,2.98,9.45,0,GUIDED,109.003
74,12.143,83,30.57,9.98,9.98,NULL,NULL,71,-0.583145,1.25426,-0.00170365,9.99,37.6008297,126.8688206,NULL,NULL,3,9.43,0.01,GUIDED,110.021
75,12.143,83,30.82,9.98,9.98,NULL,NULL,72,-0.586256,1.262,-0.00360379,9.99,37.6008499,126.8688979,NULL,NULL,2.99,9.43,0,GUIDED,111.033
76,12.143,83,30.65,10,10,NULL,NULL,71,-0.583856,1.25563,-0.001898,9.98,37.6008701,126.8689755,NULL,NULL,3,9.45,0,GUIDED,112.044
77,12.143,83,30.49,9.99,9.99,NULL,NULL,72,-0.584598,1.25785,-0.000507704,9.99,37.6008971,126.8690788,NULL,NULL,2.98,9.44,0.01,GUIDED,113.055
78,12.143,82,30.65,9.99,9.99,NULL,NULL,71,-0.585362,1.24838,0.00422042,9.99,37.6009106,126.8691304,NULL,NULL,2.98,9.45,0,GUIDED,114.076
79,12.143,82,30.65,10,10,NULL,NULL,71,-0.58542,1.25516,0.00252651,9.98,37.6009308,126.869208,NULL,NULL,2.97,9.46,0,GUIDED,115.089
80,12.143,82,30.65,10.01,10.01,NULL,NULL,71,-0.584106,1.24955,0.00613117,9.98,37.600951,126.8692857,NULL,NULL,2.98,9.45,0.01,GUIDED,116.098
81,12.143,82,30.82,10.01,10.01,NULL,NULL,72,-0.585926,1.25899,-0.0025677,9.99,37.600978,126.869389,NULL,NULL,2.97,9.42,0,GUIDED,117.109
82,12.143,82,30.65,10.05,10.05,NULL,NULL,71,-0.586692,1.2502,0.00680422,9.98,37.6010051,126.8694925,NULL,NULL,3.01,9.46,0.01,GUIDED,118.119
83,12.143,81,30.65,10.04,10.04,NULL,NULL,71,-0.582683,1.25221,0.00873671,9.99,37.6010321,126.8695963,NULL,NULL,2.96,9.45,0,GUIDED,119.129
84,12.143,81,30.82,10.01,10.01,NULL,NULL,72,-0.583262,1.25918,-0.00364307,9.99,37.6010522,126.8696741,NULL,NULL,2.97,9.44,0,GUIDED,120.139
85,12.143,81,30.65,10.02,10.02,NULL,NULL,71,-0.583506,1.25509,0.00241559,9.99,37.6010724,126.869752,NULL,NULL,3.02,9.45,0,GUIDED,121.151
86,12.143,81,30.49,10,10,NULL,NULL,71,-0.583858,1.25113,0.0110411,10,37.6010992,126.8698556,NULL,NULL,2.95,9.45,0,GUIDED,122.166
87,12.143,81,30.82,9.99,9.99,NULL,NULL,71,-0.583712,1.25846,0.00100246,10,37.6011191,126.8699334,NULL,NULL,2.95,9.46,0,GUIDED,123.178
88,12.143,80,30.65,9.99,9.99,NULL,NULL,72,-0.581548,1.26116,-0.00705596,10,37.6011392,126.8700111,NULL,NULL,3,9.44,0,GUIDED,124.192
89,12.143,80,30.57,9.97,9.97,NULL,NULL,71,-0.582212,1.25583,0.000782,10,37.6011527,126.8700627,NULL,NULL,3.02,9.43,0,GUIDED,125.269
90,12.143,80,30.65,9.96,9.96,NULL,NULL,71,-0.582685,1.25273,0.010484,10,37.6011729,126.8701402,NULL,NULL,2.98,9.44,0,GUIDED,126.279
91,12.143,80,30.65,9.96,9.96,NULL,NULL,72,-0.58293,1.25945,-0.000396841,10,37.6011929,126.8702177,NULL,NULL,2.97,9.44,0,GUIDED,127.291
92,12.143,80,30.41,9.96,9.96,NULL,NULL,71,-0.583735,1.2486,0.00654274,10.01,37.6012063,126.8702692,NULL,NULL,2.99,9.43,0,GUIDED,128.303
93,12.143,80,30.49,9.96,9.96,NULL,NULL,71,-0.581333,1.24885,0.0147398,10,37.6012264,126.8703466,NULL,NULL,2.98,9.44,0,GUIDED,129.313
94,12.143,79,30.57,9.95,9.95,NULL,NULL,72,-0.581608,1.25746,0.00429219,10.01,37.6012463,126.8704238,NULL,NULL,2.95,9.42,0,GUIDED,130.325
95,12.143,79,30.74,9.95,9.95,NULL,NULL,72,-0.58653,1.26109,0.000411894,10.01,37.6012663,126.8705011,NULL,NULL,2.99,9.4,-0.01,GUIDED,131.339
96,12.143,79,30.65,9.98,9.98,NULL,NULL,71,-0.58553,1.25247,0.0135592,10.01,37.601293,126.8706042,NULL,NULL,3,9.43,0,GUIDED,132.349
97,12.143,79,30.57,10.01,10.01,NULL,NULL,71,-0.583596,1.25638,0.0060879,10.01,37.6013196,126.8707075,NULL,NULL,2.99,9.43,-0.01,GUIDED,133.362
98,12.143,79,30.74,10,10,NULL,NULL,71,-0.584746,1.2522,0.00967846,10,37.6013395,126.8707852,NULL,NULL,2.97,9.43,-0.01,GUIDED,134.373
99,12.143,78,30.57,10.03,10.03,NULL,NULL,72,-0.586612,1.25779,0.000899055,10.01,37.6013661,126.8708888,NULL,NULL,3,9.45,0,GUIDED,135.387
100,12.143,78,30.49,10.03,10.03,NULL,NULL,71,-0.585428,1.24593,0.0140519,10,37.6013795,126.8709406,NULL,NULL,3.02,9.45,0,GUIDED,136.4
101,12.143,78,30.65,10.03,10.03,NULL,NULL,71,-0.583491,1.25405,0.0128461,10,37.601393,126.8709925,NULL,NULL,2.98,9.46,-0.01,GUIDED,137.413
102,12.143,78,30.57,10.02,10.02,NULL,NULL,72,-0.583384,1.25681,0.00672327,10,37.601413,126.8710704,NULL,NULL,2.99,9.45,0,GUIDED,138.425
103,12.143,78,30.82,10.01,10.01,NULL,NULL,72,-0.586208,1.2616,0.00151385,10,37.6014332,126.8711482,NULL,NULL,3.01,9.43,0,GUIDED,139.437
104,12.143,77,30.41,10.01,10.01,NULL,NULL,71,-0.584781,1.25053,0.0114875,10,37.6014602,126.8712517,NULL,NULL,3,9.43,0,GUIDED,140.514
105,12.143,77,30.57,10.01,10.01,NULL,NULL,71,-0.585003,1.25446,0.0122859,10,37.6014804,126.8713295,NULL,NULL,2.98,9.44,0,GUIDED,141.528
106,12.143,77,30.57,10.01,10.01,NULL,NULL,72,-0.585253,1.25664,0.00596627,10,37.6015005,126.8714072,NULL,NULL,2.99,9.43,0,GUIDED,142.539
107,12.143,77,30.57,10.01,10.01,NULL,NULL,71,-0.582962,1.25087,0.0113541,10,37.601514,126.8714589,NULL,NULL,3,9.41,0,GUIDED,143.591
108,12.143,77,30.57,10.01,10.01,NULL,NULL,71,-0.58307,1.25386,0.012152,10,37.6015208,126.8714848,NULL,NULL,2.99,9.4,0,GUIDED,144.707
109,12.143,77,30.65,9.99,9.99,NULL,NULL,72,-0.586858,1.26554,0.00330061,10,37.6015342,126.8715364,NULL,NULL,2.98,9.4,0,GUIDED,145.726
110,12.143,77,30.57,10.01,10.01,NULL,NULL,71,-0.588719,1.24633,0.0158502,10,37.6015545,126.8716141,NULL,NULL,3.01,9.44,0,GUIDED,146.737
111,12.143,76,30.57,10.03,10.03,NULL,NULL,71,-0.583999,1.24503,0.0225684,9.99,37.6015681,126.8716661,NULL,NULL,3,9.46,0,GUIDED,147.75
112,12.143,76,30.32,10.04,10.04,NULL,NULL,71,-0.581807,1.24596,0.018126,10,37.6015882,126.871744,NULL,NULL,2.95,9.44,0,GUIDED,148.766
113,12.143,76,30.57,10,10,NULL,NULL,71,-0.584698,1.25421,0.00930147,10,37.6016082,126.8718217,NULL,NULL,2.96,9.43,0,GUIDED,149.78
114,12.143,76,30.82,10,10,NULL,NULL,72,-0.587276,1.26258,0.000367214,9.99,37.6016283,126.8718993,NULL,NULL,3.02,9.42,0,GUIDED,150.792
115,12.143,76,30.74,10.03,10.03,NULL,NULL,71,-0.583082,1.2485,0.0228909,9.99,37.6016557,126.8720028,NULL,NULL,3.02,9.45,0,GUIDED,151.805
116,12.143,75,30.41,10.01,10.01,NULL,NULL,71,-0.581759,1.25533,0.0136881,10,37.6016825,126.8721063,NULL,NULL,2.97,9.42,0,GUIDED,152.819
117,12.143,75,30.65,9.99,9.99,NULL,NULL,71,-0.585145,1.2554,0.0098503,9.99,37.6017026,126.8721839,NULL,NULL,2.99,9.41,0,GUIDED,153.831
118,12.143,75,30.57,10.02,10.02,NULL,NULL,71,-0.582467,1.25302,0.0167192,9.99,37.6017297,126.8722874,NULL,NULL,3.01,9.44,0,GUIDED,154.851
119,12.143,75,30.65,10.01,10.01,NULL,NULL,71,-0.585262,1.25353,0.0174137,9.99,37.6017498,126.8723652,NULL,NULL,2.97,9.45,0,GUIDED,155.874
120,12.143,75,30.57,10.02,10.02,NULL,NULL,72,-0.582118,1.25704,0.0112561,9.99,37.6017631,126.872417,NULL,NULL,2.96,9.45,0,GUIDED,156.884
121,12.143,75,30.57,10,10,NULL,NULL,71,-0.581102,1.25334,0.0121369,9.99,37.6017833,126.8724947,NULL,NULL,3,9.41,0,GUIDED,157.892
122,12.143,74,30.65,9.99,9.99,NULL,NULL,71,-0.583492,1.25495,0.0179929,9.99,37.6018036,126.8725721,NULL,NULL,2.99,9.41,0,GUIDED,158.905
123,12.143,74,30.74,10,10,NULL,NULL,72,-0.585763,1.25713,0.0125384,9.99,37.6018238,126.8726498,NULL,NULL,2.99,9.42,0,GUIDED,159.939
124,12.143,74,30.82,10.03,10.03,NULL,NULL,71,-0.583988,1.25522,0.0209381,9.99,37.601844,126.8727274,NULL,NULL,2.99,9.41,0,GUIDED,160.957
125,12.143,74,30.65,10.03,10.03,NULL,NULL,71,-0.58484,1.25533,0.0147546,9.99,37.6018707,126.872831,NULL,NULL,2.98,9.41,0,GUIDED,161.968
126,12.143,73,30.82,10.04,10.04,NULL,NULL,72,-0.585231,1.26107,0.0111718,9.99,37.6018976,126.8729349,NULL,NULL,2.99,9.44,0,GUIDED,162.98
127,12.143,73,30.57,10.06,10.06,NULL,NULL,71,-0.581223,1.24863,0.026355,9.99,37.6019246,126.8730391,NULL,NULL,2.98,9.43,0,GUIDED,163.99
128,12.143,73,30.65,10.02,10.02,NULL,NULL,71,-0.583162,1.25095,0.0241777,10,37.6019513,126.873143,NULL,NULL,2.95,9.42,0,GUIDED,165.001
129,12.143,73,30.57,10.01,10.01,NULL,NULL,71,-0.582543,1.25472,0.0151695,10,37.6019778,126.8732467,NULL,NULL,2.96,9.37,0,GUIDED,166.013
130,12.143,72,30.65,10.01,10.01,NULL,NULL,71,-0.586173,1.2519,0.0226679,10,37.6020046,126.8733501,NULL,NULL,2.99,9.39,0,GUIDED,167.024
131,12.143,72,30.41,10.04,10.04,NULL,NULL,71,-0.581919,1.25235,0.0209487,9.99,37.6020246,126.8734281,NULL,NULL,2.97,9.4,0,GUIDED,168.05
132,12.143,72,30.57,10.01,10.01,NULL,NULL,72,-0.58491,1.25697,0.0181238,9.99,37.6020514,126.8735318,NULL,NULL,2.98,9.37,0,GUIDED,169.063
133,12.143,72,30.65,10.02,10.02,NULL,NULL,71,-0.587502,1.25591,0.0168932,9.99,37.6020715,126.8736095,NULL,NULL,3,9.38,0,GUIDED,170.077
134,12.143,72,30.57,10.04,10.04,NULL,NULL,71,-0.584108,1.25259,0.0224904,9.99,37.6020917,126.8736875,NULL,NULL,2.99,9.41,0,GUIDED,171.09
135,12.143,72,30.57,10.04,10.04,NULL,NULL,71,-0.584612,1.2513,0.0203922,9.99,37.6021051,126.8737394,NULL,NULL,2.97,9.39,0,GUIDED,172.25
136,12.143,71,30.65,10.04,10.04,NULL,NULL,71,-0.587052,1.25287,0.0200963,9.99,37.6021185,126.8737914,NULL,NULL,2.99,9.4,0,GUIDED,173.266
137,12.143,71,30.74,10.05,10.05,NULL,NULL,71,-0.58129,1.25495,0.019702,9.99,37.6021388,126.8738694,NULL,NULL,2.99,9.42,0,GUIDED,174.626
138,12.143,71,30.49,10.04,10.04,NULL,NULL,71,-0.581395,1.25561,0.0190447,9.99,37.6021524,126.8739214,NULL,NULL,3,9.4,0.01,GUIDED,175.639
139,12.143,71,30.65,10.01,10.01,NULL,NULL,71,-0.582655,1.25255,0.0227928,9.99,37.6021727,126.873999,NULL,NULL,3,9.37,0,GUIDED,176.77
140,12.143,71,30.65,10.01,10.01,NULL,NULL,71,-0.582297,1.25314,0.0227746,9.98,37.6021861,126.8740507,NULL,NULL,3,9.37,0,GUIDED,177.781
141,12.143,71,30.65,10.01,10.01,NULL,NULL,72,-0.584834,1.26089,0.0174099,9.98,37.6022064,126.8741283,NULL,NULL,2.99,9.38,0.01,GUIDED,178.792
142,12.143,70,30.65,10.02,10.02,NULL,NULL,71,-0.582829,1.25583,0.021674,9.98,37.6022266,126.8742062,NULL,NULL,3.01,9.39,0,GUIDED,179.804
143,12.143,70,30.49,10.03,10.03,NULL,NULL,71,-0.57997,1.24884,0.0300915,9.98,37.6022467,126.8742841,NULL,NULL,2.97,9.39,0.01,GUIDED,180.818
144,12.143,70,30.74,10.02,10.02,NULL,NULL,71,-0.583371,1.25621,0.0224592,9.98,37.6022667,126.874362,NULL,NULL,2.95,9.39,0.01,GUIDED,181.83
145,12.143,70,30.74,10.03,10.03,NULL,NULL,72,-0.584195,1.25855,0.0155915,9.98,37.6022934,126.8744657,NULL,NULL,2.99,9.37,0.01,GUIDED,182.841
146,12.143,69,30.65,10.01,10.01,NULL,NULL,71,-0.582472,1.25318,0.0259944,9.98,37.6023271,126.8745952,NULL,NULL,2.99,9.37,0,GUIDED,183.852
147,12.143,69,30.57,10.01,10.01,NULL,NULL,72,-0.581168,1.25708,0.0224485,9.98,37.6023472,126.874673,NULL,NULL,2.96,9.38,0.01,GUIDED,184.862
148,12.143,69,30.74,10.01,10.01,NULL,NULL,72,-0.582543,1.25951,0.0138004,9.98,37.6023741,126.8747768,NULL,NULL,3,9.39,0.01,GUIDED,185.872
149,12.143,69,30.65,10,10,NULL,NULL,71,-0.578303,1.25603,0.0235377,9.98,37.6024012,126.8748803,NULL,NULL,2.99,9.37,0.01,GUIDED,186.882
150,12.143,69,30.65,9.97,9.97,NULL,NULL,72,-0.580841,1.26054,0.0219505,9.99,37.6024281,126.8749836,NULL,NULL,2.97,9.34,0,GUIDED,187.892
151,12.143,68,30.65,10.01,10.01,NULL,NULL,71,-0.583138,1.24709,0.033311,9.98,37.6024549,126.8750869,NULL,NULL,2.96,9.37,0,GUIDED,188.903
152,12.143,68,30.65,10.02,10.02,NULL,NULL,71,-0.579945,1.25623,0.0219685,9.99,37.6024749,126.8751646,NULL,NULL,2.95,9.38,0.01,GUIDED,189.913
153,12.143,68,30.74,10,10,NULL,NULL,71,-0.581441,1.25391,0.0244268,9.99,37.6024949,126.8752424,NULL,NULL,2.97,9.36,0,GUIDED,190.923
154,12.143,68,30.74,10.01,10.01,NULL,NULL,72,-0.581948,1.25748,0.0202655,9.99,37.6025151,126.8753199,NULL,NULL,2.98,9.34,0,GUIDED,191.936
155,12.143,68,30.74,10.02,10.02,NULL,NULL,71,-0.583855,1.25412,0.0246252,9.99,37.6025353,126.8753974,NULL,NULL,2.99,9.36,0,GUIDED,192.946
156,12.143,67,30.82,10.05,10.05,NULL,NULL,71,-0.582336,1.24639,0.0332664,9.99,37.6025622,126.8755011,NULL,NULL,2.95,9.38,0,GUIDED,193.956
157,12.143,67,30.57,10.05,10.05,NULL,NULL,72,-0.579365,1.2577,0.0162139,9.99,37.6025887,126.8756053,NULL,NULL,2.95,9.38,0,GUIDED,194.969
158,12.143,67,30.82,10.01,10.01,NULL,NULL,72,-0.582979,1.25799,0.0216592,10,37.6026157,126.875709,NULL,NULL,2.97,9.34,0,GUIDED,195.98
159,12.143,67,30.57,10.01,10.01,NULL,NULL,71,-0.581177,1.24447,0.0296228,10,37.6026428,126.8758125,NULL,NULL,2.98,9.34,0,GUIDED,196.993
160,12.143,66,30.82,10.03,10.03,NULL,NULL,71,-0.580252,1.25483,0.0256808,10,37.6026765,126.8759424,NULL,NULL,2.96,9.37,0,GUIDED,198.008
161,12.143,66,30.57,10.02,10.02,NULL,NULL,71,-0.580183,1.25367,0.0207839,10,37.6026967,126.8760201,NULL,NULL,2.98,9.35,0,GUIDED,199.021
162,12.143,66,30.82,10.01,10.01,NULL,NULL,71,-0.582626,1.25195,0.0279653,10,37.602717,126.8760975,NULL,NULL,2.98,9.35,-0.01,GUIDED,200.032
163,12.143,66,30.57,10.02,10.02,NULL,NULL,72,-0.578506,1.25754,0.0210108,10.01,37.602744,126.8762013,NULL,NULL,2.97,9.33,0,GUIDED,201.045
164,12.143,65,30.57,9.99,9.99,NULL,NULL,71,-0.580293,1.2484,0.0324876,10.01,37.6027643,126.8762788,NULL,NULL,2.97,9.33,-0.01,GUIDED,202.056
165,12.143,65,30.74,10,10,NULL,NULL,71,-0.581362,1.25636,0.0212771,10.01,37.6027911,126.8763827,NULL,NULL,2.95,9.35,-0.01,GUIDED,203.068
166,12.143,65,30.82,10.01,10.01,NULL,NULL,71,-0.579927,1.25662,0.0254961,10.01,37.6028179,126.8764865,NULL,NULL,2.98,9.35,-0.01,GUIDED,204.079
167,12.143,65,30.65,10.01,10.01,NULL,NULL,71,-0.580216,1.25535,0.0236061,10.01,37.602838,126.8765642,NULL,NULL,2.97,9.35,-0.01,GUIDED,205.089
168,12.143,65,30.57,10,10,NULL,NULL,71,-0.578478,1.25107,0.030565,10.02,37.602858,126.8766417,NULL,NULL,2.94,9.33,-0.01,GUIDED,206.101
169,12.143,64,30.57,9.99,9.99,NULL,NULL,71,-0.582339,1.25456,0.0262677,10.02,37.6028779,126.8767195,NULL,NULL,2.93,9.35,-0.01,GUIDED,207.11
170,12.143,64,30.57,9.99,9.99,NULL,NULL,72,-0.581368,1.261,0.0143655,10.02,37.6028979,126.8767971,NULL,NULL,2.97,9.33,-0.02,GUIDED,208.12
171,12.143,64,30.57,9.97,9.97,NULL,NULL,72,-0.582169,1.25934,0.023708,10.02,37.6029249,126.8769004,NULL,NULL,2.97,9.31,-0.02,GUIDED,209.129
172,12.143,64,30.41,9.98,9.98,NULL,NULL,71,-0.584536,1.25377,0.0233849,10.02,37.6029517,126.8770035,NULL,NULL,2.98,9.33,-0.01,GUIDED,210.142
173,12.143,63,30.57,9.99,9.99,NULL,NULL,71,-0.581474,1.25278,0.0280615,10.01,37.6029786,126.8771066,NULL,NULL,2.97,9.33,-0.01,GUIDED,211.156
174,12.143,63,30.74,9.98,9.98,NULL,NULL,72,-0.582156,1.26069,0.0220255,10.01,37.6029988,126.8771839,NULL,NULL,2.97,9.33,-0.01,GUIDED,212.169
175,12.143,63,30.49,10,10,NULL,NULL,71,-0.58449,1.25114,0.0286016,10,37.6030256,126.8772873,NULL,NULL,2.96,9.35,0,GUIDED,213.181
176,12.143,63,30.57,10.01,10.01,NULL,NULL,71,-0.58201,1.2492,0.030492,10,37.6030456,126.8773653,NULL,NULL,2.94,9.38,0,GUIDED,214.195
177,12.143,63,30.49,9.99,9.99,NULL,NULL,71,-0.580239,1.25648,0.0186765,10,37.6030721,126.8774688,NULL,NULL,2.94,9.33,0,GUIDED,215.208
178,12.143,62,30.57,9.98,9.98,NULL,NULL,71,-0.584404,1.25441,0.024386,9.99,37.603099,126.877572,NULL,NULL,2.99,9.32,0,GUIDED,216.22
179,12.143,62,30.49,10.01,10.01,NULL,NULL,71,-0.580603,1.25019,0.0313267,9.99,37.6031259,126.8776756,NULL,NULL,2.97,9.36,0,GUIDED,217.234
180,12.143,62,30.41,10.01,10.01,NULL,NULL,71,-0.580807,1.25097,0.0275235,9.98,37.6031459,126.8777534,NULL,NULL,2.96,9.35,0.01,GUIDED,218.246
181,12.143,62,30.57,10,10,NULL,NULL,71,-0.581002,1.25043,0.0295046,9.98,37.6031724,126.8778567,NULL,NULL,2.96,9.34,0.01,GUIDED,219.259
182,12.143,62,30.82,10,10,NULL,NULL,72,-0.584216,1.26306,0.0144997,9.98,37.6031924,126.8779345,NULL,NULL,2.98,9.34,0.01,GUIDED,220.27
183,12.143,61,30.32,10.01,10.01,NULL,NULL,71,-0.581127,1.24885,0.0273175,9.98,37.6032124,126.8780122,NULL,NULL,3,9.32,0.02,GUIDED,221.282
184,12.143,61,30.41,10,10,NULL,NULL,71,-0.581719,1.25261,0.0299982,9.98,37.6032324,126.87809,NULL,NULL,2.96,9.32,0.01,GUIDED,222.297
185,12.143,61,30.41,9.99,9.99,NULL,NULL,71,-0.584641,1.24819,0.0271596,9.97,37.6032521,126.8781677,NULL,NULL,2.95,9.31,0.01,GUIDED,223.31
186,12.143,61,30.9,10.01,10.01,NULL,NULL,72,-0.585968,1.25671,0.0173272,9.97,37.6032719,126.8782455,NULL,NULL,2.98,9.35,0.01,GUIDED,224.323
187,12.143,61,30.9,10.04,10.04,NULL,NULL,71,-0.582801,1.25148,0.0226049,9.96,37.6032988,126.8783494,NULL,NULL,3.02,9.35,0.02,GUIDED,225.337
188,12.143,60,30.65,10.03,10.03,NULL,NULL,72,-0.579492,1.26299,0.0114091,9.97,37.6033189,126.8784273,NULL,NULL,3.01,9.33,0.03,GUIDED,226.352
189,12.143,60,30.41,10,10,NULL,NULL,71,-0.581303,1.2451,0.0319772,9.96,37.6033459,126.878531,NULL,NULL,3.02,9.34,0.03,GUIDED,227.365
190,12.143,60,30.57,9.99,9.99,NULL,NULL,71,-0.577043,1.25125,0.0266757,9.97,37.6033658,126.8786091,NULL,NULL,2.95,9.35,0.02,GUIDED,228.377
191,12.143,60,30.57,9.95,9.95,NULL,NULL,71,-0.581126,1.25502,0.0144662,9.96,37.6033921,126.8787125,NULL,NULL,2.99,9.32,0.02,GUIDED,229.39
192,12.143,59,30.82,9.96,9.96,NULL,NULL,72,-0.581668,1.26401,0.00947349,9.96,37.6034121,126.8787898,NULL,NULL,3.02,9.33,0.02,GUIDED,230.402
193,12.143,59,30.74,9.97,9.97,NULL,NULL,71,-0.580479,1.25217,0.0207126,9.96,37.603439,126.8788929,NULL,NULL,3.04,9.35,0.02,GUIDED,231.414
194,12.143,59,30.49,9.96,9.96,NULL,NULL,71,-0.578711,1.25095,0.0222864,9.97,37.6034657,126.8789965,NULL,NULL,3,9.35,0.02,GUIDED,232.426
195,12.143,59,30.57,9.93,9.93,NULL,NULL,71,-0.576996,1.25659,0.0146137,9.97,37.6034856,126.8790739,NULL,NULL,2.99,9.32,0.02,GUIDED,233.439
196,12.143,59,30.57,9.92,9.92,NULL,NULL,71,-0.581418,1.2506,0.0175831,9.97,37.6035122,126.8791767,NULL,NULL,3,9.33,0.02,GUIDED,234.451
197,12.143,58,30.65,9.94,9.94,NULL,NULL,72,-0.579782,1.25766,0.0106015,9.97,37.6035321,126.8792538,NULL,NULL,3,9.31,0.01,GUIDED,235.463
198,12.143,58,30.57,9.94,9.94,NULL,NULL,72,-0.580898,1.25869,0.0107167,9.98,37.6035589,126.8793567,NULL,NULL,3.03,9.33,0.01,GUIDED,236.502
199,12.143,58,30.57,9.94,9.94,NULL,NULL,71,-0.579355,1.24841,0.0202977,9.98,37.603579,126.8794337,NULL,NULL,3,9.34,0.01,GUIDED,237.516
200,12.143,58,30.82,9.94,9.94,NULL,NULL,72,-0.579794,1.26063,0.00669371,9.98,37.6035989,126.879511,NULL,NULL,2.98,9.36,0.01,GUIDED,238.532
201,12.143,58,30.57,9.93,9.93,NULL,NULL,71,-0.579636,1.25331,0.00827164,9.98,37.6036189,126.8795884,NULL,NULL,3.02,9.35,0,GUIDED,239.546
202,12.143,57,30.57,9.93,9.93,NULL,NULL,71,-0.579061,1.25536,0.00995872,9.98,37.6036392,126.8796657,NULL,NULL,3.02,9.35,0.01,GUIDED,240.559
203,12.143,57,30.74,9.92,9.92,NULL,NULL,71,-0.582477,1.2564,0.0124958,9.99,37.6036661,126.8797683,NULL,NULL,3.01,9.36,0,GUIDED,241.573
204,12.143,57,30.57,9.95,9.95,NULL,NULL,71,-0.580891,1.25276,0.010415,9.99,37.6036862,126.8798452,NULL,NULL,3.01,9.38,0,GUIDED,242.587
205,12.143,57,30.65,9.95,9.95,NULL,NULL,71,-0.576908,1.25236,0.0137368,9.99,37.603713,126.8799482,NULL,NULL,3.01,9.36,0,GUIDED,243.602
206,12.143,56,30.65,9.93,9.93,NULL,NULL,71,-0.581186,1.25316,0.0103755,10,37.603733,126.8800255,NULL,NULL,3,9.35,0,GUIDED,244.617
207,12.143,56,30.65,9.95,9.95,NULL,NULL,71,-0.582998,1.24763,0.0146812,10,37.6037597,126.8801283,NULL,NULL,3.02,9.38,0,GUIDED,245.631
208,12.143,56,30.57,9.97,9.97,NULL,NULL,71,-0.578646,1.2532,0.0098535,10,37.6037797,126.8802057,NULL,NULL,3.01,9.37,0,GUIDED,246.645
209,12.143,56,30.57,9.95,9.95,NULL,NULL,71,-0.58117,1.25305,0.00973991,10.01,37.6037996,126.880283,NULL,NULL,3.01,9.37,0,GUIDED,247.658
210,12.143,56,30.57,9.93,9.93,NULL,NULL,71,-0.581288,1.26,0.00225467,10.01,37.603826,126.8803861,NULL,NULL,3.01,9.35,-0.01,GUIDED,248.679
211,12.143,55,30.74,9.94,9.94,NULL,NULL,71,-0.584885,1.25506,0.00237049,10.01,37.603846,126.8804633,NULL,NULL,3.05,9.36,-0.01,GUIDED,249.691
212,12.143,55,30.74,9.98,9.98,NULL,NULL,71,-0.582683,1.25444,0.00632336,10.01,37.6038729,126.8805664,NULL,NULL,3.05,9.41,-0.01,GUIDED,250.71
213,12.143,55,30.82,9.97,9.97,NULL,NULL,72,-0.581511,1.25929,0.00310681,10.02,37.6038996,126.8806697,NULL,NULL,3.02,9.42,-0.01,GUIDED,251.722
214,12.143,55,30.57,9.95,9.95,NULL,NULL,71,-0.578161,1.25454,-0.00110689,10.02,37.6039196,126.880747,NULL,NULL,3.03,9.4,-0.02,GUIDED,252.735
215,12.143,55,30.41,9.92,9.92,NULL,NULL,71,-0.580892,1.25539,0.00486611,10.02,37.6039396,126.8808239,NULL,NULL,3.01,9.38,-0.01,GUIDED,253.751
216,12.143,54,30.57,9.92,9.92,NULL,NULL,71,-0.583497,1.25225,0.00271542,10.02,37.6039663,126.8809266,NULL,NULL,3.03,9.4,-0.02,GUIDED,254.767
217,12.143,54,30.65,9.93,9.93,NULL,NULL,71,-0.581602,1.25651,0.0034478,10.02,37.6039864,126.8810039,NULL,NULL,3.03,9.4,-0.02,GUIDED,255.781
218,12.143,54,30.57,9.93,9.93,NULL,NULL,72,-0.583454,1.25963,-0.00407676,10.02,37.6040064,126.8810812,NULL,NULL,3.04,9.39,-0.02,GUIDED,256.798
219,12.143,54,30.65,9.94,9.94,NULL,NULL,71,-0.58474,1.24871,0.00908293,10.02,37.6040331,126.8811836,NULL,NULL,3.02,9.41,-0.02,GUIDED,257.812
220,12.143,54,30.9,9.97,9.97,NULL,NULL,72,-0.585346,1.26451,-0.0101165,10.02,37.604053,126.8812609,NULL,NULL,3.03,9.43,-0.03,GUIDED,258.824
221,12.143,53,30.41,9.97,9.97,NULL,NULL,71,-0.5845,1.24579,0.00944519,10.03,37.6040799,126.881364,NULL,NULL,3.05,9.42,-0.03,GUIDED,259.838
222,12.143,53,30.57,9.97,9.97,NULL,NULL,71,-0.584184,1.2513,0.000531617,10.03,37.6041065,126.8814671,NULL,NULL,3.01,9.42,-0.02,GUIDED,260.85
223,12.143,53,30.65,9.96,9.96,NULL,NULL,72,-0.588907,1.2612,-0.00986842,10.03,37.604133,126.8815702,NULL,NULL,3.04,9.42,-0.02,GUIDED,261.863
224,12.143,53,30.65,9.98,9.98,NULL,NULL,72,-0.586576,1.25885,-0.00624593,10.03,37.6041532,126.8816475,NULL,NULL,3.06,9.43,-0.02,GUIDED,262.872
225,12.143,52,30.32,9.97,9.97,NULL,NULL,71,-0.584843,1.25074,0.00132734,10.03,37.6041802,126.8817507,NULL,NULL,3.04,9.42,-0.02,GUIDED,263.881
226,12.143,52,30.41,9.95,9.95,NULL,NULL,71,-0.585497,1.24937,0.0040021,10.02,37.6042001,126.881828,NULL,NULL,3.01,9.44,-0.02,GUIDED,264.894
227,12.143,52,30.57,9.96,9.96,NULL,NULL,71,-0.586309,1.25476,-0.0103115,10.02,37.6042267,126.8819315,NULL,NULL,3.04,9.44,-0.02,GUIDED,265.903
228,12.143,52,30.32,9.94,9.94,NULL,NULL,71,-0.587702,1.25098,-0.00239005,10.02,37.6042535,126.8820343,NULL,NULL,3.05,9.42,-0.02,GUIDED,266.912
229,12.143,51,30.65,9.95,9.95,NULL,NULL,71,-0.586926,1.25651,-0.00551499,10.01,37.6042802,126.8821373,NULL,NULL,3.05,9.44,-0.02,GUIDED,267.921
230,12.143,51,30.41,9.95,9.95,NULL,NULL,71,-0.586699,1.25645,-0.00981934,10.01,37.6043003,126.8822147,NULL,NULL,3.08,9.45,-0.01,GUIDED,268.933
231,12.143,51,30.41,9.95,9.95,NULL,NULL,71,-0.586729,1.25123,0.00283673,10.01,37.6043207,126.882292,NULL,NULL,3.08,9.47,0,GUIDED,269.943
232,12.143,51,30.57,9.94,9.94,NULL,NULL,72,-0.586542,1.25907,-0.00893808,10,37.6043406,126.8823693,NULL,NULL,3.04,9.45,0,GUIDED,270.954
233,12.143,51,30.41,9.93,9.93,NULL,NULL,71,-0.587382,1.25448,-0.00952071,10,37.6043604,126.8824467,NULL,NULL,3.05,9.45,0,GUIDED,271.964
234,12.143,50,30.49,9.93,9.93,NULL,NULL,71,-0.587639,1.25142,-0.0017176,10,37.6043803,126.8825238,NULL,NULL,3.04,9.44,0,GUIDED,272.972
235,12.143,50,30.65,9.94,9.94,NULL,NULL,72,-0.587565,1.26012,-0.0134653,9.99,37.6044067,126.8826269,NULL,NULL,3.05,9.48,0,GUIDED,273.983
236,12.143,50,30.65,9.94,9.94,NULL,NULL,72,-0.587328,1.25701,-0.015232,9.98,37.6044333,126.88273,NULL,NULL,3.1,9.47,0,GUIDED,274.994
237,12.143,50,30.41,9.94,9.94,NULL,NULL,71,-0.585159,1.25182,-0.00502802,9.98,37.6044601,126.8828331,NULL,NULL,3.06,9.47,0.01,GUIDED,276.006
238,12.143,50,30.49,9.91,9.91,NULL,NULL,71,-0.584772,1.25104,-0.0078531,9.98,37.6044799,126.8829104,NULL,NULL,3.03,9.46,0.01,GUIDED,277.016
239,12.143,49,30.49,9.91,9.91,NULL,NULL,71,-0.587704,1.25332,-0.0121119,9.97,37.6044997,126.8829874,NULL,NULL,3.05,9.45,0.01,GUIDED,278.025
240,12.143,49,30.57,9.9,9.9,NULL,NULL,72,-0.586083,1.26034,-0.0203814,9.97,37.6045264,126.88309,NULL,NULL,3.06,9.44,0.02,GUIDED,279.036
241,12.143,49,30.57,9.9,9.9,NULL,NULL,71,-0.584019,1.25466,-0.0143666,9.97,37.6045465,126.8831666,NULL,NULL,3.08,9.43,0.02,GUIDED,280.046
242,12.143,49,30.57,9.9,9.9,NULL,NULL,72,-0.583339,1.25736,-0.016168,9.97,37.6045731,126.8832693,NULL,NULL,3.04,9.44,0.02,GUIDED,281.057
243,12.143,48,30.41,9.88,9.88,NULL,NULL,71,-0.583314,1.25068,-0.0121512,9.96,37.6045998,126.8833715,NULL,NULL,3.04,9.44,0.03,GUIDED,282.066
244,12.143,48,30.41,9.87,9.87,NULL,NULL,71,-0.582631,1.25444,-0.0158261,9.96,37.6046198,126.8834482,NULL,NULL,3.04,9.44,0.03,GUIDED,283.075
245,12.143,48,30.49,9.86,9.86,NULL,NULL,72,-0.583228,1.25751,-0.0183845,9.97,37.6046399,126.8835247,NULL,NULL,3.05,9.42,0.03,GUIDED,284.085
246,12.143,48,30.57,9.84,9.84,NULL,NULL,71,-0.582533,1.25641,-0.0173238,9.96,37.6046599,126.8836013,NULL,NULL,3.06,9.41,0.02,GUIDED,285.095
247,12.143,48,30.49,9.85,9.85,NULL,NULL,72,-0.581997,1.25872,-0.0205127,9.96,37.6046799,126.8836778,NULL,NULL,3.06,9.4,0.03,GUIDED,286.104
248,12.143,48,30.41,9.85,9.85,NULL,NULL,71,-0.583538,1.24856,-0.0106683,9.96,37.6047001,126.8837543,NULL,NULL,3.05,9.42,0.02,GUIDED,287.115
249,12.143,47,30.57,9.86,9.86,NULL,NULL,71,-0.581838,1.2555,-0.0154243,9.96,37.60472,126.8838309,NULL,NULL,3.04,9.44,0.03,GUIDED,288.126
250,12.143,47,30.49,9.84,9.84,NULL,NULL,71,-0.583381,1.24989,-0.0109707,9.96,37.6047464,126.8839329,NULL,NULL,3.03,9.44,0.02,GUIDED,289.139
251,12.143,47,30.65,9.84,9.84,NULL,NULL,71,-0.578629,1.25338,-0.0164493,9.97,37.6047661,126.8840099,NULL,NULL,3.01,9.46,0.03,GUIDED,290.152
252,12.143,47,30.49,9.81,9.81,NULL,NULL,72,-0.579958,1.25979,-0.0264946,9.97,37.6047923,126.8841116,NULL,NULL,3.05,9.42,0.02,GUIDED,291.161
253,12.143,46,30.65,9.81,9.81,NULL,NULL,72,-0.584604,1.25748,-0.022398,9.97,37.6048122,126.8841877,NULL,NULL,3.07,9.43,0.02,GUIDED,292.171
254,12.143,46,30.41,9.83,9.83,NULL,NULL,71,-0.582176,1.24697,-0.0118795,9.97,37.6048388,126.8842895,NULL,NULL,3.05,9.45,0.01,GUIDED,293.182
255,12.143,46,30.57,9.83,9.83,NULL,NULL,71,-0.582965,1.24627,-0.0129855,9.98,37.6048649,126.8843915,NULL,NULL,3.01,9.47,0.01,GUIDED,294.193
256,12.143,46,30.49,9.84,9.84,NULL,NULL,71,-0.581562,1.25312,-0.0232574,9.98,37.6048845,126.884468,NULL,NULL,3.03,9.47,0.01,GUIDED,295.202
257,12.143,46,30.57,9.83,9.83,NULL,NULL,71,-0.584448,1.25522,-0.0261829,9.98,37.6049109,126.8845699,NULL,NULL,3.07,9.46,0.01,GUIDED,296.212
258,12.143,45,30.41,9.83,9.83,NULL,NULL,71,-0.582196,1.25245,-0.0190774,9.99,37.6049376,126.8846714,NULL,NULL,3.05,9.47,0,GUIDED,297.222
259,12.143,45,30.65,9.83,9.83,NULL,NULL,71,-0.583243,1.25541,-0.0242282,9.99,37.6049642,126.8847729,NULL,NULL,3.04,9.47,0,GUIDED,298.235
260,12.143,45,30.57,9.85,9.85,NULL,NULL,72,-0.583955,1.25919,-0.0311221,9.99,37.6049842,126.8848492,NULL,NULL,3.08,9.47,0.01,GUIDED,299.247
261,12.143,45,30.65,9.84,9.84,NULL,NULL,71,-0.586003,1.25623,-0.0251585,9.99,37.605011,126.8849507,NULL,NULL,3.08,9.48,0,GUIDED,300.256
262,12.143,44,30.41,9.85,9.85,NULL,NULL,71,-0.585065,1.24925,-0.016798,10,37.605031,126.8850268,NULL,NULL,3.05,9.49,0,GUIDED,301.265
263,12.143,44,30.82,9.86,9.86,NULL,NULL,72,-0.584563,1.2636,-0.0280595,10,37.6050509,126.8851035,NULL,NULL,3.04,9.52,0,GUIDED,302.364
264,12.143,44,30.49,9.86,9.86,NULL,NULL,72,-0.58051,1.26574,-0.0337071,10,37.6050641,126.8851546,NULL,NULL,3.05,9.5,0,GUIDED,303.38
265,12.143,44,30.32,9.81,9.81,NULL,NULL,71,-0.583487,1.25191,-0.0221125,10,37.6050841,126.8852308,NULL,NULL,3.06,9.47,0,GUIDED,304.39
266,12.143,44,30.41,9.81,9.81,NULL,NULL,71,-0.583792,1.25161,-0.0185614,10,37.6051039,126.8853069,NULL,NULL,3.04,9.48,0,GUIDED,305.402
267,12.143,44,30.41,9.79,9.79,NULL,NULL,71,-0.583237,1.25351,-0.0199972,10,37.6051236,126.8853832,NULL,NULL,3.03,9.5,0,GUIDED,306.415
268,12.143,43,30.65,9.8,9.8,NULL,NULL,72,-0.584123,1.26342,-0.0308513,10,37.6051498,126.8854852,NULL,NULL,3.06,9.5,0,GUIDED,307.426
269,12.143,43,30.41,9.8,9.8,NULL,NULL,71,-0.582776,1.25408,-0.0259335,10,37.6051696,126.8855616,NULL,NULL,3.07,9.49,0,GUIDED,308.436
270,12.143,43,30.32,9.8,9.8,NULL,NULL,71,-0.582843,1.25192,-0.0187628,10,37.6051958,126.885663,NULL,NULL,3.04,9.5,0,GUIDED,309.446
271,12.143,43,30.57,9.78,9.78,NULL,NULL,72,-0.583379,1.26239,-0.0318997,10,37.6052154,126.8857389,NULL,NULL,3.05,9.48,-0.01,GUIDED,310.459
272,12.143,42,30.32,9.79,9.79,NULL,NULL,71,-0.582305,1.25295,-0.0230529,10,37.6052415,126.8858403,NULL,NULL,3.07,9.48,0,GUIDED,311.471
273,12.143,42,30.32,9.78,9.78,NULL,NULL,71,-0.584797,1.24503,-0.012084,10,37.6052611,126.8859164,NULL,NULL,3.01,9.49,0,GUIDED,312.492
274,12.143,42,30.57,9.78,9.78,NULL,NULL,71,-0.586251,1.2511,-0.0217866,10,37.6052739,126.8859675,NULL,NULL,3,9.51,-0.01,GUIDED,313.512
275,12.143,42,30.65,9.81,9.81,NULL,NULL,71,-0.58519,1.25519,-0.032257,10,37.6052999,126.8860691,NULL,NULL,3.05,9.51,0,GUIDED,314.528
276,12.143,42,30.16,9.81,9.81,NULL,NULL,71,-0.583154,1.25366,-0.0306476,10,37.6053264,126.8861703,NULL,NULL,3.09,9.46,0,GUIDED,315.542
277,12.143,41,30.65,9.8,9.8,NULL,NULL,71,-0.586922,1.25411,-0.021765,10,37.6053462,126.8862464,NULL,NULL,3.05,9.47,-0.01,GUIDED,316.557
278,12.143,41,30.57,9.83,9.83,NULL,NULL,72,-0.585911,1.25738,-0.0337078,10,37.6053726,126.8863479,NULL,NULL,3.07,9.47,0,GUIDED,317.569
279,12.143,41,30.57,9.85,9.85,NULL,NULL,71,-0.58681,1.25353,-0.0268947,10,37.6053927,126.886424,NULL,NULL,3.09,9.49,0,GUIDED,318.582
280,12.143,41,30.57,9.86,9.86,NULL,NULL,71,-0.585311,1.25191,-0.0217403,10,37.6054129,126.8865004,NULL,NULL,3.07,9.5,0,GUIDED,319.592
281,12.143,41,30.41,9.85,9.85,NULL,NULL,71,-0.58386,1.25198,-0.023306,10,37.6054327,126.8865769,NULL,NULL,3.05,9.51,0,GUIDED,320.602
282,12.143,40,30.41,9.83,9.83,NULL,NULL,71,-0.584342,1.25031,-0.0242832,10,37.605459,126.886679,NULL,NULL,3.04,9.5,0,GUIDED,321.612
283,12.143,40,30.32,9.82,9.82,NULL,NULL,71,-0.586744,1.24977,-0.0242033,10.01,37.6054853,126.8867804,NULL,NULL,3.04,9.48,0,GUIDED,322.621
284,12.143,40,30.41,9.82,9.82,NULL,NULL,72,-0.586245,1.25875,-0.0324038,10.01,37.6055117,126.8868823,NULL,NULL,3.07,9.49,0,GUIDED,323.633
285,12.143,40,30.49,9.82,9.82,NULL,NULL,72,-0.585395,1.25982,-0.03234,10,37.6055318,126.8869588,NULL,NULL,3.1,9.49,-0.01,GUIDED,324.643
286,12.143,40,30.32,9.8,9.8,NULL,NULL,71,-0.584211,1.25111,-0.0202149,10,37.6055584,126.8870599,NULL,NULL,3.06,9.5,0,GUIDED,325.655
287,12.143,39,30.41,9.77,9.77,NULL,NULL,71,-0.583073,1.25619,-0.0273536,10,37.6055846,126.8871608,NULL,NULL,3.03,9.51,0,GUIDED,326.665
288,12.143,39,30.24,9.75,9.75,NULL,NULL,71,-0.583848,1.24378,-0.020159,10,37.6056041,126.8872366,NULL,NULL,3.04,9.5,0,GUIDED,327.675
289,12.143,39,30.32,9.75,9.75,NULL,NULL,71,-0.582455,1.2558,-0.0310433,10,37.6056302,126.8873376,NULL,NULL,3.04,9.51,0,GUIDED,328.684
290,12.143,39,30.41,9.73,9.73,NULL,NULL,72,-0.580655,1.26172,-0.0362284,10,37.6056564,126.8874385,NULL,NULL,3.07,9.49,0,GUIDED,329.693
291,12.143,38,30.41,9.72,9.72,NULL,NULL,72,-0.581852,1.25719,-0.0263308,10,37.6056827,126.8875395,NULL,NULL,3.07,9.51,0,GUIDED,330.702
292,12.143,38,30.32,9.71,9.71,NULL,NULL,72,-0.580222,1.25798,-0.032338,10,37.6057091,126.8876406,NULL,NULL,3.07,9.49,0,GUIDED,331.715
293,12.143,38,30.41,9.7,9.7,NULL,NULL,71,-0.580853,1.2549,-0.0206722,10,37.6057355,126.887741,NULL,NULL,3.06,9.49,0,GUIDED,332.724
294,12.143,38,30.32,9.7,9.7,NULL,NULL,71,-0.582199,1.25356,-0.0243778,10,37.6057551,126.8878159,NULL,NULL,3.05,9.49,0,GUIDED,333.733
295,12.143,38,30.41,9.71,9.71,NULL,NULL,71,-0.581204,1.25305,-0.0200009,10,37.6057745,126.8878915,NULL,NULL,3.04,9.51,0,GUIDED,334.745
296,12.143,37,30.41,9.7,9.7,NULL,NULL,72,-0.578443,1.26208,-0.0341282,10,37.605794,126.8879672,NULL,NULL,3.05,9.49,0,GUIDED,335.755
297,12.143,37,30.41,9.68,9.68,NULL,NULL,71,-0.581727,1.25602,-0.0301,10,37.605807,126.8880177,NULL,NULL,3.07,9.48,0,GUIDED,336.767
298,12.143,37,30.41,9.69,9.69,NULL,NULL,71,-0.579938,1.25103,-0.0204239,10,37.6058201,126.8880677,NULL,NULL,3.07,9.49,0,GUIDED,337.779
299,12.143,37,30.41,9.69,9.69,NULL,NULL,71,-0.579921,1.25088,-0.0186505,10,37.6058266,126.8880927,NULL,NULL,3.05,9.48,-0.01,GUIDED,338.791
300,12.143,37,30.49,9.69,9.69,NULL,NULL,71,-0.581299,1.25487,-0.0205419,10,37.6058331,126.8881177,NULL,NULL,3.04,9.47,0,GUIDED,339.802
301,12.143,37,30.49,9.69,9.69,NULL,NULL,71,-0.581299,1.25487,-0.0205419,10,37.6058331,126.8881177,NULL,NULL,3.04,9.47,0,GUIDED,340.812
302,12.143,37,30.49,9.69,9.69,NULL,NULL,71,-0.581299,1.25487,-0.0205419,10,37.6058331,126.8881177,NULL,NULL,3.04,9.47,0,GUIDED,341.826
303,12.143,37,30.49,9.7,9.7,NULL,NULL,72,-0.583384,1.25996,-0.026289,10,37.6058461,126.8881676,NULL,NULL,3.03,9.49,0,GUIDED,342.837
304,12.143,37,30.41,9.71,9.71,NULL,NULL,72,-0.581134,1.25686,-0.0279531,10,37.605859,126.8882177,NULL,NULL,3.05,9.49,-0.01,GUIDED,343.849
305,12.143,37,30.41,9.71,9.71,NULL,NULL,71,-0.580791,1.25275,-0.0244941,10,37.6058655,126.888243,NULL,NULL,3.06,9.49,-0.01,GUIDED,344.862
306,12.143,37,30.41,9.71,9.71,NULL,NULL,71,-0.580791,1.25275,-0.0244941,10,37.6058655,126.888243,NULL,NULL,3.06,9.49,-0.01,GUIDED,345.872
307,12.143,37,30.41,9.71,9.71,NULL,NULL,71,-0.580791,1.25275,-0.0244941,10,37.6058655,126.888243,NULL,NULL,3.06,9.49,-0.01,GUIDED,346.884
308,12.143,37,30.41,9.71,9.71,NULL,NULL,71,-0.58151,1.25116,-0.0211416,10,37.605872,126.8882682,NULL,NULL,3.05,9.49,0,GUIDED,347.895
309,12.143,37,30.32,9.71,9.71,NULL,NULL,71,-0.58151,1.25116,-0.0211416,10,37.605872,126.8882682,NULL,NULL,3.05,9.49,0,GUIDED,348.916
310,12.143,36,30.41,9.72,9.72,NULL,NULL,71,-0.580678,1.25752,-0.0261928,10.01,37.605898,126.8883692,NULL,NULL,3.03,9.5,0,GUIDED,349.927
311,12.143,36,30.41,9.72,9.72,NULL,NULL,72,-0.580804,1.25952,-0.0318203,10.01,37.6059175,126.8884449,NULL,NULL,3.05,9.48,-0.01,GUIDED,350.936
312,12.143,36,30.24,9.71,9.71,NULL,NULL,71,-0.583971,1.2492,-0.021885,10.01,37.6059371,126.8885206,NULL,NULL,3.05,9.45,0,GUIDED,351.949
313,12.143,36,30.32,9.71,9.71,NULL,NULL,71,-0.585201,1.24652,-0.0146024,10.01,37.6059566,126.8885956,NULL,NULL,3.02,9.46,-0.01,GUIDED,352.96
314,12.143,36,30.41,9.73,9.73,NULL,NULL,72,-0.584204,1.25996,-0.0318533,10.01,37.6059826,126.888696,NULL,NULL,3.03,9.5,-0.01,GUIDED,353.971
315,12.143,35,30.41,9.75,9.75,NULL,NULL,71,-0.583216,1.25483,-0.0248623,10.01,37.606009,126.888797,NULL,NULL,3.07,9.48,-0.01,GUIDED,354.981
316,12.143,35,30.41,9.74,9.74,NULL,NULL,72,-0.5837,1.25798,-0.0249666,10.01,37.6060289,126.8888728,NULL,NULL,3.06,9.48,-0.01,GUIDED,355.995
317,12.143,35,30.32,9.74,9.74,NULL,NULL,71,-0.585172,1.25152,-0.0208432,10.01,37.6060553,126.8889737,NULL,NULL,3.05,9.47,-0.01,GUIDED,357.009
318,12.143,35,30.49,9.75,9.75,NULL,NULL,71,-0.585302,1.25472,-0.0196622,10.01,37.606075,126.8890495,NULL,NULL,3.06,9.5,-0.01,GUIDED,358.02
319,12.143,34,30.24,9.74,9.74,NULL,NULL,71,-0.581637,1.25614,-0.0271604,10.01,37.6061012,126.8891505,NULL,NULL,3.07,9.48,-0.01,GUIDED,359.031
320,12.143,34,30.49,9.72,9.72,NULL,NULL,71,-0.582971,1.25568,-0.0159085,10.01,37.6061275,126.8892514,NULL,NULL,3.05,9.48,-0.01,GUIDED,360.04
321,12.143,34,30.32,9.73,9.73,NULL,NULL,72,-0.584104,1.25805,-0.027921,10.01,37.6061534,126.8893524,NULL,NULL,3.06,9.47,-0.01,GUIDED,361.052
322,12.143,34,30.32,9.73,9.73,NULL,NULL,71,-0.586086,1.25055,-0.0120421,10.01,37.6061794,126.8894534,NULL,NULL,3.04,9.48,-0.01,GUIDED,362.062
323,12.143,34,30.41,9.73,9.73,NULL,NULL,72,-0.585637,1.25795,-0.0228083,10.01,37.6061987,126.8895291,NULL,NULL,3.03,9.51,0,GUIDED,363.071
324,12.143,33,30.41,9.74,9.74,NULL,NULL,72,-0.582628,1.25675,-0.024866,10,37.6062247,126.8896301,NULL,NULL,3.07,9.5,0,GUIDED,364.082
325,12.143,33,30.16,9.72,9.72,NULL,NULL,71,-0.581093,1.25341,-0.0187528,10,37.6062443,126.8897058,NULL,NULL,3.07,9.49,0,GUIDED,365.092
326,12.143,33,30.32,9.7,9.7,NULL,NULL,71,-0.58249,1.25264,-0.0161174,10,37.6062573,126.8897563,NULL,NULL,3.06,9.49,0,GUIDED,366.109
327,12.143,33,30.41,9.69,9.69,NULL,NULL,71,-0.585301,1.25157,-0.015576,10,37.6062768,126.8898313,NULL,NULL,3.05,9.5,0,GUIDED,367.12
328,12.143,33,30.32,9.71,9.71,NULL,NULL,72,-0.58321,1.2572,-0.0208021,10,37.6062962,126.8899063,NULL,NULL,3.05,9.5,0,GUIDED,368.17
329,12.143,32,30.41,9.7,9.7,NULL,NULL,72,-0.582405,1.26025,-0.0277247,10,37.6063156,126.889982,NULL,NULL,3.06,9.49,0,GUIDED,369.182
330,12.143,32,30.32,9.7,9.7,NULL,NULL,71,-0.582404,1.24786,-0.0131169,10,37.6063353,126.8900572,NULL,NULL,3.09,9.48,0,GUIDED,370.195
331,12.143,32,30.41,9.7,9.7,NULL,NULL,72,-0.583822,1.25961,-0.0202211,10,37.606355,126.8901322,NULL,NULL,3.07,9.47,0,GUIDED,371.205
332,12.143,32,30.32,9.7,9.7,NULL,NULL,71,-0.581788,1.25321,-0.0174934,10,37.6063811,126.8902321,NULL,NULL,3.08,9.49,0,GUIDED,372.215
333,12.143,32,30.41,9.69,9.69,NULL,NULL,72,-0.584305,1.25932,-0.0199875,10,37.6064073,126.890332,NULL,NULL,3.04,9.49,0,GUIDED,373.225
334,12.143,31,30.49,9.71,9.71,NULL,NULL,71,-0.581841,1.25661,-0.0208184,9.99,37.6064334,126.8904319,NULL,NULL,3.07,9.49,0,GUIDED,374.235
335,12.143,31,30.32,9.71,9.71,NULL,NULL,71,-0.582793,1.25247,-0.0137353,10,37.6064597,126.8905319,NULL,NULL,3.05,9.48,0,GUIDED,375.245
336,12.143,31,30.24,9.7,9.7,NULL,NULL,71,-0.583063,1.24719,-0.00737006,10,37.6064857,126.8906318,NULL,NULL,3.02,9.47,0,GUIDED,376.258
337,12.143,31,30.41,9.71,9.71,NULL,NULL,71,-0.585614,1.25439,-0.016058,9.99,37.6065115,126.890732,NULL,NULL,3,9.49,0,GUIDED,377.267
338,12.143,30,30.24,9.74,9.74,NULL,NULL,71,-0.584166,1.25167,-0.0159577,9.99,37.606531,126.8908078,NULL,NULL,3.03,9.51,0,GUIDED,378.279
339,12.143,30,30.41,9.73,9.73,NULL,NULL,72,-0.58134,1.26502,-0.0247492,9.99,37.6065571,126.8909088,NULL,NULL,3.05,9.48,0,GUIDED,379.295
340,12.143,30,30.07,9.71,9.71,NULL,NULL,71,-0.583043,1.24083,-0.00362751,9.99,37.6065835,126.8910096,NULL,NULL,3.04,9.45,0,GUIDED,380.307
341,12.143,30,30.41,9.71,9.71,NULL,NULL,72,-0.587184,1.25902,-0.0136122,9.99,37.6066096,126.8911096,NULL,NULL,3.01,9.49,0,GUIDED,381.324
342,12.143,29,30.32,9.74,9.74,NULL,NULL,71,-0.585106,1.25208,-0.0136685,9.99,37.6066293,126.8911853,NULL,NULL,3.06,9.47,0,GUIDED,382.353
343,12.143,29,30.41,9.74,9.74,NULL,NULL,72,-0.582147,1.26088,-0.0167058,9.99,37.606649,126.8912611,NULL,NULL,3.05,9.49,0,GUIDED,383.364
344,12.143,29,30.32,9.73,9.73,NULL,NULL,71,-0.58219,1.25124,-0.0125088,9.99,37.6066688,126.8913368,NULL,NULL,3.06,9.46,0,GUIDED,384.378
345,12.143,29,30.32,9.73,9.73,NULL,NULL,71,-0.58478,1.24944,0.000275427,9.99,37.6066886,126.8914126,NULL,NULL,3.02,9.48,0.01,GUIDED,385.392
346,12.143,29,30.41,9.74,9.74,NULL,NULL,72,-0.583691,1.2602,-0.0214745,9.99,37.6067146,126.8915135,NULL,NULL,3.05,9.49,0,GUIDED,386.404
347,12.143,28,30.41,9.75,9.75,NULL,NULL,71,-0.582103,1.25422,-0.00913619,9.99,37.6067343,126.8915893,NULL,NULL,3.05,9.5,0,GUIDED,387.416
348,12.143,28,30.57,9.73,9.73,NULL,NULL,72,-0.581896,1.25905,-0.0128452,9.99,37.606767,126.8917155,NULL,NULL,3.05,9.49,0,GUIDED,388.434
349,12.143,28,30.41,9.73,9.73,NULL,NULL,72,-0.580656,1.25877,-0.010949,9.99,37.6067866,126.8917912,NULL,NULL,3.05,9.49,0,GUIDED,389.443
350,12.143,28,30.49,9.71,9.71,NULL,NULL,72,-0.584438,1.25687,-0.0104437,9.99,37.6068126,126.8918922,NULL,NULL,3.04,9.48,0,GUIDED,390.453
351,12.143,28,30.57,9.73,9.73,NULL,NULL,71,-0.583763,1.25109,-0.00506165,9.99,37.6068386,126.8919932,NULL,NULL,3.03,9.51,0,GUIDED,391.464
352,12.143,27,30.57,9.74,9.74,NULL,NULL,72,-0.582089,1.25964,-0.0119926,9.99,37.606858,126.8920689,NULL,NULL,3.04,9.5,0,GUIDED,392.476
353,12.143,27,30.41,9.74,9.74,NULL,NULL,71,-0.58035,1.25255,-0.00397125,10,37.606884,126.8921699,NULL,NULL,3.05,9.48,0,GUIDED,393.486
354,12.143,27,30.65,9.73,9.73,NULL,NULL,72,-0.585926,1.26169,-0.0124401,10,37.6069099,126.8922709,NULL,NULL,3.05,9.49,0,GUIDED,394.501
355,12.143,27,30.41,9.76,9.76,NULL,NULL,71,-0.581512,1.25553,-0.00919793,10,37.6069295,126.8923466,NULL,NULL,3.08,9.49,0,GUIDED,395.511
356,12.143,26,30.32,9.73,9.73,NULL,NULL,71,-0.581126,1.25434,-0.00426989,10,37.6069556,126.8924476,NULL,NULL,3.06,9.47,-0.01,GUIDED,396.532
357,12.143,26,30.65,9.73,9.73,NULL,NULL,71,-0.583376,1.25561,-0.00231976,10,37.6069751,126.8925233,NULL,NULL,3.04,9.49,-0.01,GUIDED,397.611
358,12.143,26,30.57,9.75,9.75,NULL,NULL,71,-0.58417,1.25298,-0.00772679,10,37.6069945,126.8925991,NULL,NULL,3.06,9.5,0,GUIDED,398.629
359,12.143,26,30.57,9.76,9.76,NULL,NULL,71,-0.583593,1.25353,-0.00598304,10.01,37.6070141,126.8926748,NULL,NULL,3.07,9.48,0,GUIDED,399.641
360,12.143,26,30.57,9.78,9.78,NULL,NULL,71,-0.582226,1.26194,-0.0092295,10.01,37.6070336,126.8927506,NULL,NULL,3.07,9.49,0,GUIDED,400.652
361,12.143,25,30.41,9.76,9.76,NULL,NULL,71,-0.583339,1.25449,-0.00835959,10.01,37.6070532,126.8928263,NULL,NULL,3.07,9.46,-0.01,GUIDED,401.663
362,12.143,25,30.32,9.76,9.76,NULL,NULL,71,-0.585973,1.24706,0.00191416,10.01,37.6070792,126.8929273,NULL,NULL,3.04,9.47,-0.01,GUIDED,402.672
363,12.143,25,30.57,9.78,9.78,NULL,NULL,72,-0.585666,1.25813,-0.0122945,10.01,37.6071051,126.8930282,NULL,NULL,3.04,9.47,-0.01,GUIDED,403.682
364,12.143,25,30.41,9.8,9.8,NULL,NULL,71,-0.586577,1.25195,-0.00494476,10.01,37.6071316,126.8931292,NULL,NULL,3.1,9.46,-0.01,GUIDED,404.696
365,12.143,25,30.57,9.82,9.82,NULL,NULL,72,-0.586222,1.25711,-0.00191082,10.01,37.6071516,126.893205,NULL,NULL,3.06,9.49,-0.01,GUIDED,405.706
366,12.143,24,30.49,9.83,9.83,NULL,NULL,72,-0.589671,1.25891,-0.0109323,10.01,37.6071713,126.8932807,NULL,NULL,3.06,9.49,-0.01,GUIDED,406.716
367,12.143,24,30.41,9.84,9.84,NULL,NULL,71,-0.586769,1.25119,-0.00401162,10.01,37.607198,126.8933823,NULL,NULL,3.07,9.49,-0.01,GUIDED,407.727
368,12.143,24,30.49,9.83,9.83,NULL,NULL,71,-0.584442,1.25286,-0.00247196,10.01,37.6072247,126.8934843,NULL,NULL,3.05,9.49,-0.01,GUIDED,408.74
369,12.143,24,30.41,9.81,9.81,NULL,NULL,72,-0.585524,1.25898,-0.0103163,10.01,37.6072446,126.8935602,NULL,NULL,3.07,9.48,-0.01,GUIDED,409.751
370,12.143,23,30.65,9.8,9.8,NULL,NULL,72,-0.586864,1.25926,-0.00228707,10.01,37.6072712,126.8936612,NULL,NULL,3.05,9.5,-0.01,GUIDED,410.76
371,12.143,23,30.41,9.8,9.8,NULL,NULL,71,-0.584801,1.25107,0.000186697,10.01,37.6072976,126.8937621,NULL,NULL,3.04,9.48,-0.01,GUIDED,411.772
372,12.143,23,30.49,9.78,9.78,NULL,NULL,71,-0.585929,1.256,-0.0011047,10,37.6073173,126.8938379,NULL,NULL,3.02,9.49,-0.01,GUIDED,412.782
373,12.143,23,30.24,9.78,9.78,NULL,NULL,71,-0.583939,1.25411,-0.0039688,10,37.6073304,126.8938884,NULL,NULL,3.03,9.5,0,GUIDED,413.795
374,12.143,23,30.32,9.78,9.78,NULL,NULL,71,-0.584646,1.24981,0.00254046,10,37.6073566,126.8939893,NULL,NULL,3.03,9.48,0,GUIDED,414.877
375,12.143,22,30.32,9.77,9.77,NULL,NULL,71,-0.584619,1.24947,0.00366816,10,37.6073762,126.8940651,NULL,NULL,3.01,9.5,0,GUIDED,415.889
376,12.143,22,30.41,9.77,9.77,NULL,NULL,72,-0.585102,1.25823,-0.00643508,10,37.6073958,126.8941408,NULL,NULL,3.02,9.49,0,GUIDED,416.9
377,12.143,22,30.32,9.78,9.78,NULL,NULL,71,-0.585945,1.24139,0.00898723,10,37.6074154,126.8942165,NULL,NULL,3.06,9.5,0,GUIDED,417.91
378,12.143,22,30.32,9.76,9.76,NULL,NULL,72,-0.580495,1.25876,-0.00537305,10,37.6074414,126.8943179,NULL,NULL,3.03,9.49,0,GUIDED,418.921
379,12.143,22,30.32,9.75,9.75,NULL,NULL,71,-0.583509,1.25391,-0.00392566,10,37.607461,126.8943937,NULL,NULL,3.05,9.47,0,GUIDED,419.93
380,12.143,21,30.65,9.75,9.75,NULL,NULL,71,-0.586344,1.25408,0.000824494,10,37.6074807,126.8944694,NULL,NULL,3.06,9.48,0,GUIDED,420.941
381,12.143,21,30.49,9.78,9.78,NULL,NULL,71,-0.584263,1.25596,-0.00267211,9.99,37.6075069,126.8945704,NULL,NULL,3.05,9.5,0,GUIDED,421.952
382,12.143,21,30.41,9.78,9.78,NULL,NULL,72,-0.580628,1.2579,-0.000769913,9.99,37.6075329,126.8946714,NULL,NULL,3.02,9.49,0,GUIDED,422.963
383,12.143,21,30.49,9.76,9.76,NULL,NULL,71,-0.585584,1.25482,-0.00279356,9.99,37.6075589,126.8947723,NULL,NULL,3.04,9.47,0,GUIDED,423.975
384,12.143,20,30.49,9.79,9.79,NULL,NULL,72,-0.587033,1.25924,-0.00667376,9.99,37.6075787,126.8948481,NULL,NULL,3.04,9.47,0,GUIDED,424.985
385,12.143,20,30.41,9.82,9.82,NULL,NULL,71,-0.584388,1.25261,0.00430271,9.99,37.6076051,126.8949491,NULL,NULL,3.03,9.49,0,GUIDED,426.002
386,12.143,20,30.57,9.82,9.82,NULL,NULL,72,-0.584667,1.2615,-0.00930155,9.99,37.6076248,126.8950248,NULL,NULL,3.03,9.5,0,GUIDED,427.011
387,12.143,20,30.32,9.81,9.81,NULL,NULL,71,-0.583108,1.25163,0.000301329,9.99,37.6076447,126.8951012,NULL,NULL,3.06,9.49,0,GUIDED,428.021
388,12.143,20,30.32,9.8,9.8,NULL,NULL,71,-0.583889,1.25278,0.000848613,9.99,37.607658,126.8951521,NULL,NULL,3.05,9.48,0,GUIDED,429.033
389,12.143,20,30.32,9.79,9.79,NULL,NULL,71,-0.584744,1.25372,0.00190911,9.99,37.6076646,126.8951774,NULL,NULL,3.05,9.49,0,GUIDED,430.044
390,12.143,20,30.41,9.79,9.79,NULL,NULL,72,-0.583293,1.25701,0.0021264,10,37.6076712,126.8952026,NULL,NULL,3.03,9.49,0,GUIDED,431.06
391,12.143,20,30.57,9.78,9.78,NULL,NULL,72,-0.582196,1.25798,-8.34E-06,9.99,37.6076778,126.8952279,NULL,NULL,3.03,9.49,0,GUIDED,432.088
392,12.143,20,30.32,9.78,9.78,NULL,NULL,72,-0.583177,1.25715,-0.00112197,9.99,37.6076844,126.8952531,NULL,NULL,3.02,9.48,0,GUIDED,433.111
393,12.143,20,30.49,9.78,9.78,NULL,NULL,72,-0.583078,1.25873,-0.00355133,9.99,37.607691,126.8952783,NULL,NULL,3.02,9.47,0,GUIDED,434.127
394,12.143,20,30.49,9.78,9.78,NULL,NULL,72,-0.583078,1.25873,-0.00355133,9.99,37.607691,126.8952783,NULL,NULL,3.02,9.47,0,GUIDED,435.138
395,12.143,19,30.32,9.77,9.77,NULL,NULL,72,-0.582486,1.26006,-0.00691648,9.99,37.6076976,126.8953036,NULL,NULL,3.02,9.46,0,GUIDED,436.147
396,12.143,19,30.32,9.77,9.77,NULL,NULL,72,-0.582486,1.26006,-0.00691648,9.99,37.6076976,126.8953036,NULL,NULL,3.02,9.46,0,GUIDED,437.165
397,12.143,19,30.57,9.76,9.76,NULL,NULL,72,-0.583481,1.26002,-0.00840162,9.99,37.6077041,126.8953288,NULL,NULL,3.03,9.46,0,GUIDED,438.177
398,12.143,19,30.57,9.77,9.77,NULL,NULL,72,-0.586092,1.25877,-0.00315533,9.99,37.6077173,126.8953793,NULL,NULL,3.05,9.45,0,GUIDED,439.187
399,12.143,19,30.32,9.78,9.78,NULL,NULL,71,-0.584855,1.25386,0.00279295,9.99,37.6077305,126.8954298,NULL,NULL,3.05,9.46,0,GUIDED,440.199
400,12.143,19,30.16,9.79,9.79,NULL,NULL,71,-0.585081,1.24476,0.0103358,9.99,37.6077436,126.8954803,NULL,NULL,3.03,9.47,0,GUIDED,441.211
401,12.143,19,30.16,9.79,9.79,NULL,NULL,71,-0.585081,1.24476,0.0103358,9.99,37.6077436,126.8954803,NULL,NULL,3.03,9.47,0,GUIDED,442.223
402,12.143,19,30.16,9.79,9.79,NULL,NULL,71,-0.585081,1.24476,0.0103358,9.99,37.6077436,126.8954803,NULL,NULL,3.03,9.47,0,GUIDED,443.234
403,12.143,19,30.41,9.79,9.79,NULL,NULL,71,-0.58529,1.24842,0.00986632,9.99,37.6077501,126.8955056,NULL,NULL,3.02,9.47,0,GUIDED,444.246
404,12.143,19,30.41,9.79,9.79,NULL,NULL,71,-0.58529,1.24842,0.00986632,9.99,37.6077501,126.8955056,NULL,NULL,3.02,9.47,0,GUIDED,445.296
405,12.143,19,30.32,9.79,9.79,NULL,NULL,71,-0.586023,1.25302,0.00778987,9.99,37.6077567,126.8955308,NULL,NULL,3.02,9.48,0,GUIDED,446.308
406,12.143,19,30.65,9.81,9.81,NULL,NULL,72,-0.588555,1.25994,-0.00537674,9.99,37.6077761,126.8956068,NULL,NULL,3.02,9.5,0,GUIDED,447.319
407,12.143,19,30.41,9.84,9.84,NULL,NULL,71,-0.582696,1.25522,0.000109886,9.98,37.6077958,126.8956835,NULL,NULL,3.05,9.51,0.01,GUIDED,448.333
408,12.143,18,30.65,9.81,9.81,NULL,NULL,72,-0.583492,1.26569,-0.00736656,9.98,37.6078155,126.89576,NULL,NULL,3.04,9.48,0,GUIDED,449.347
409,12.143,18,30.16,9.79,9.79,NULL,NULL,71,-0.583781,1.24311,0.0100614,9.98,37.6078351,126.8958363,NULL,NULL,3.05,9.47,0.01,GUIDED,450.359
410,12.143,18,30.49,9.79,9.79,NULL,NULL,71,-0.584587,1.25595,0.000627325,9.98,37.6078609,126.8959373,NULL,NULL,2.99,9.5,0.01,GUIDED,451.368
411,12.143,18,30.41,9.79,9.79,NULL,NULL,71,-0.58561,1.25411,-0.00534203,9.98,37.6078868,126.8960393,NULL,NULL,3.04,9.46,0.01,GUIDED,452.38
412,12.143,17,30.32,9.8,9.8,NULL,NULL,71,-0.583281,1.24669,0.00544728,9.98,37.6079129,126.8961406,NULL,NULL,3.05,9.49,0.01,GUIDED,453.389
413,12.143,17,30.41,9.79,9.79,NULL,NULL,71,-0.583361,1.24927,0.00368418,9.98,37.6079325,126.8962163,NULL,NULL,3.03,9.49,0.01,GUIDED,454.398
414,12.143,17,30.41,9.78,9.78,NULL,NULL,72,-0.581323,1.25736,-0.00670226,9.98,37.6079519,126.8962921,NULL,NULL,3.02,9.47,0.01,GUIDED,455.415
415,12.143,17,30.32,9.77,9.77,NULL,NULL,71,-0.583128,1.25284,-0.00665757,9.98,37.6079714,126.8963678,NULL,NULL,3.05,9.46,0.01,GUIDED,456.425
416,12.143,17,30.57,9.78,9.78,NULL,NULL,71,-0.583422,1.25516,-0.00396763,9.98,37.6079977,126.8964688,NULL,NULL,3.06,9.46,0.01,GUIDED,457.436
417,12.143,16,30.41,9.78,9.78,NULL,NULL,72,-0.583298,1.25725,-0.00719747,9.98,37.6080241,126.8965698,NULL,NULL,3.07,9.46,0.01,GUIDED,458.448
418,12.143,16,30.57,9.79,9.79,NULL,NULL,72,-0.584183,1.25996,-0.00581353,9.98,37.6080505,126.8966707,NULL,NULL,3.06,9.47,0.01,GUIDED,459.458
419,12.143,16,30.65,9.8,9.8,NULL,NULL,72,-0.582446,1.25667,-0.00285827,9.98,37.6080767,126.8967717,NULL,NULL,3.04,9.48,0,GUIDED,460.478
420,12.143,16,30.49,9.79,9.79,NULL,NULL,72,-0.583196,1.25849,-0.00979298,9.98,37.6080964,126.8968475,NULL,NULL,3.04,9.46,0.01,GUIDED,461.489
421,12.143,15,30.32,9.8,9.8,NULL,NULL,72,-0.584397,1.2558,-0.00449338,9.98,37.6081228,126.8969484,NULL,NULL,3.07,9.49,0.01,GUIDED,462.513
422,12.143,15,30.32,9.81,9.81,NULL,NULL,71,-0.581204,1.25071,0.000904052,9.98,37.608136,126.8969989,NULL,NULL,3.05,9.48,0.01,GUIDED,463.529
423,12.143,15,30.41,9.79,9.79,NULL,NULL,71,-0.583117,1.25219,0.0001068,9.98,37.6081622,126.8970999,NULL,NULL,3.01,9.47,0.01,GUIDED,464.54
424,12.143,15,30.57,9.81,9.81,NULL,NULL,71,-0.584285,1.25198,-0.00432495,9.98,37.6081882,126.8972009,NULL,NULL,3.04,9.49,0.01,GUIDED,465.554
425,12.143,15,30.57,9.82,9.82,NULL,NULL,72,-0.583691,1.25826,-0.00939161,9.99,37.608208,126.8972774,NULL,NULL,3.04,9.48,0,GUIDED,466.565
426,12.143,14,30.57,9.83,9.83,NULL,NULL,71,-0.587627,1.2522,-0.00489155,9.99,37.6082343,126.8973794,NULL,NULL,3.06,9.49,0,GUIDED,467.608
427,12.143,14,30.57,9.84,9.84,NULL,NULL,72,-0.583956,1.25864,-0.00952535,9.99,37.6082541,126.897456,NULL,NULL,3.06,9.51,0,GUIDED,468.62
428,12.143,14,30.49,9.81,9.81,NULL,NULL,72,-0.582729,1.25889,-0.0127927,9.99,37.6082806,126.897558,NULL,NULL,3.07,9.48,0,GUIDED,469.63
429,12.143,14,30.57,9.81,9.81,NULL,NULL,72,-0.583008,1.25779,-0.00559443,10,37.6083071,126.8976593,NULL,NULL,3.06,9.5,0,GUIDED,470.64
430,12.143,13,30.32,9.79,9.79,NULL,NULL,71,-0.583906,1.24633,-0.000205906,10,37.6083334,126.8977603,NULL,NULL,3.04,9.51,0,GUIDED,471.65
431,12.143,13,30.57,9.78,9.78,NULL,NULL,71,-0.581844,1.25174,-0.00398787,10,37.6083595,126.8978616,NULL,NULL,3.01,9.53,0,GUIDED,472.661
432,12.143,13,30.41,9.76,9.76,NULL,NULL,71,-0.582567,1.25415,-0.0129384,10,37.6083856,126.897963,NULL,NULL,3.04,9.49,0,GUIDED,473.669
433,12.143,13,30.32,9.75,9.75,NULL,NULL,71,-0.584116,1.2515,-0.00666024,10,37.6084119,126.8980639,NULL,NULL,3.06,9.46,0,GUIDED,474.679
434,12.143,12,30.57,9.78,9.78,NULL,NULL,72,-0.585746,1.25993,-0.0142733,10,37.6084381,126.8981649,NULL,NULL,3.06,9.49,0,GUIDED,475.689
